"Dc_Dist","Psa","Dispatch_Date_Time","Dispatch_Date","Dispatch_Time","Hour","Dc_Key","Location_Block","UCR_General","Text_General_Code","Police_Districts","Month","Lon","Lat"
15,"G","2007-04-16 06:34:00","2007-04-16","18:34:00",18,200715039094,"5200 BLOCK FRANKFORD AVE",1800,"Narcotic / Drug Law Violations",11,"2007-04",-75.078182,40.022416
15,"T","2009-06-08 02:42:00","2009-06-08","02:42:00",2,200915061896,"6800 BLOCK EDMUND ST",800,"Other Assaults",11,"2009-06",-75.042071,40.024325
22,"4","2015-08-30 02:03:00","2015-08-30","02:03:00",2,201522077759,"N 24TH ST / W MONTGOMERY AV",700,"Recovered Stolen Motor Vehicle",16,"2015-08",-75.173752,39.982316
35,"1","2011-01-22 05:33:00","2011-01-22","17:33:00",17,201135005288,"5900 BLOCK N 10TH ST",800,"Other Assaults",20,"2011-01",-75.137009,40.042075
25,"R","2009-08-18 03:59:00","2009-08-18","03:59:00",3,200925087201,"3800 BLOCK N REESE ST",2600,"All Other Offenses",18,"2009-08",-75.137113,40.00951
26,"3","2011-07-31 02:25:00","2011-07-31","02:25:00",2,201126041884,"2500 BLOCK SALMON ST",1400,"Vandalism/Criminal Mischief",19,"2011-07",-75.117139,39.975546
6,"T","2008-01-30 11:21:00","2008-01-30","11:21:00",11,200806006020,"0 BLOCK BANK ST",800,"Other Assaults",5,"2008-01",-75.145116,39.9488
39,"T","2006-08-26 11:04:00","2006-08-26","23:04:00",23,200639054490,"500 BLOCK W QUEEN LN",300,"Robbery Firearm",21,"2006-08",-75.176786,40.023868
26,"T","2006-09-06 01:59:00","2006-09-06","01:59:00",1,200626066499,"100 BLOCK W DAUPHIN ST",2600,"All Other Offenses",19,"2006-09",-75.132264,39.984732
22,"3","2010-10-09 04:12:00","2010-10-09","04:12:00",4,201022093435,"1300 BLOCK N BROAD ST",2600,"All Other Offenses",16,"2010-10",-75.159105,39.973259
15,"H","2007-08-01 03:05:00","2007-08-01","15:05:00",15,200715083036,"2000 BLOCK GRANITE ST",600,"Thefts",11,"2007-08",-75.07199,40.015276
22,"D","2007-11-26 05:50:00","2007-11-26","05:50:00",5,200722070786,"1600 BLOCK FRENCH ST",600,"Theft from Vehicle",16,"2007-11",-75.15964,39.98619
17,"B","2009-06-30 03:29:00","2009-06-30","15:29:00",15,200917030503,"2100 BLOCK FEDERAL ST",600,"Thefts",13,"2009-06",-75.178675,39.937559
14,"B","2006-07-14 03:38:00","2006-07-14","15:38:00",15,200614057716,"300 BLOCK COLLOM ST",800,"Other Assaults",10,"2006-07",-75.161803,40.034514
22,"2","2013-06-28 12:08:00","2013-06-28","12:08:00",12,201322052012,"2900 BLOCK DIAMOND ST",800,"Other Assaults",16,"2013-06",-75.180713,39.987885
39,"K","2007-03-01 08:26:00","2007-03-01","20:26:00",20,200739011942,"N 26TH ST /W STERNER ST",2600,"All Other Offenses",21,"2007-03",-75.173849,39.996921
14,"Q","2006-09-16 03:51:00","2006-09-16","15:51:00",15,200614076297,"7800 BLOCK PROVIDENT ST",1700,"Other Sex Offenses (Not Commercialized)",10,"2006-09",-75.161949,40.072757
8,"1","2010-07-22 08:31:00","2010-07-22","20:31:00",20,201008031398,"8100 BLOCK STATE RD",800,"Other Assaults",7,"2010-07",-75.020307,40.03202
17,"3","2014-08-20 03:00:00","2014-08-20","15:00:00",15,201417034442,"1500 BLOCK POINT BREEZE AVE",2600,"All Other Offenses",13,"2014-08",-75.180709,39.933315
12,"3","2014-02-07 09:59:00","2014-02-07","21:59:00",21,201412008783,"6200 BLOCK DICKENS AVE",2600,"All Other Offenses",9,"2014-02",-75.226291,39.923819
1,"J","2007-06-18 01:52:00","2007-06-18","13:52:00",13,200701019220,"2200 BLOCK S 23RD ST",500,"Burglary Residential",1,"2007-06",-75.184628,39.924997
15,"2","2009-10-25 11:30:00","2009-10-25","23:30:00",23,200915117596,"5300 BLOCK FRANKFORD AV",600,"Theft from Vehicle",11,"2009-10",-75.076843,40.023323
3,"E","2007-11-17 10:45:00","2007-11-17","22:45:00",22,200703039183,"500 BLOCK SOUTH ST",2600,"All Other Offenses",3,"2007-11",-75.151578,39.941976
12,"3","2014-07-31 09:38:00","2014-07-31","09:38:00",9,201412057196,"5600 BLOCK PASCHALL AVE",800,"Other Assaults",9,"2014-07",-75.220342,39.933638
24,"1","2015-08-24 01:24:00","2015-08-24","13:24:00",13,201524080827,"3300 BLOCK RAND ST",800,"Other Assaults",17,"2015-08",-75.112282,39.9984
14,"1","2006-03-08 03:25:00","2006-03-08","03:25:00",3,200614019621,"3200 BLOCK W CHELTENHAM AV",700,"Recovered Stolen Motor Vehicle",10,"2006-03",-75.171785,40.081861
39,"1","2010-07-22 10:43:00","2010-07-22","10:43:00",10,201039044505,"600 BLOCK HARVEY ST",800,"Other Assaults",21,"2010-07",-75.187528,40.032031
15,"2","2010-04-12 05:46:00","2010-04-12","17:46:00",17,201015037624,"5300 BLOCK MARSDEN ST",700,"Motor Vehicle Theft",11,"2010-04",-75.069384,40.014228
12,"J","2008-08-27 06:05:00","2008-08-27","06:05:00",6,200812076208,"6000 BLOCK KINGSESSING AVE",500,"Burglary Residential",9,"2008-08",-75.231133,39.931997
26,"3","2013-01-16 09:42:00","2013-01-16","21:42:00",21,201326003020,"2500 BLOCK FRANKFORD AV",2400,"Disorderly Conduct",19,"2013-01",-75.125856,39.983314
17,"3","2009-12-18 12:32:00","2009-12-18","12:32:00",12,200917063776,"2300 BLOCK DICKINSON ST",2600,"All Other Offenses",13,"2009-12",-75.183148,39.933613
35,"1","2014-05-06 11:46:00","2014-05-06","11:46:00",11,201435035896,"5800 BLOCK N 13TH ST",800,"Other Assaults",20,"2014-05",-75.142056,40.041156
8,"I","2008-11-08 09:33:00","2008-11-08","21:33:00",21,200808054518,"10900 BLOCK HEFLIN RD",800,"Other Assaults",7,"2008-11",-74.986556,40.080392
12,"1","2010-05-02 01:27:00","2010-05-02","01:27:00",1,201012040370,"2700 BLOCK S 73RD ST",400,"Aggravated Assault No Firearm",9,"2010-05",-75.238978,39.911791
6,"K","2006-02-19 01:12:00","2006-02-19","01:12:00",1,200606010842,"200 BLOCK N 11TH ST",2600,"All Other Offenses",5,"2006-02",-75.157146,39.956813
15,"2","2015-01-24 01:07:00","2015-01-24","13:07:00",13,201515007331,"5400 BLOCK HARBISON AVE",300,"Robbery Firearm",11,"2015-01",-75.06819,40.014885
23,"L","2008-07-09 09:42:00","2008-07-09","21:42:00",21,200823032593,"N 26TH ST  / SEYBERT ST",1400,"Vandalism/Criminal Mischief",16,"2008-07",-75.178379,39.976153
9,"3","2015-01-25 11:14:00","2015-01-25","23:14:00",23,201509003197,"2600 BLOCK BROWN ST",700,"Recovered Stolen Motor Vehicle",8,"2015-01",-75.179686,39.97028
35,"3","2014-01-22 05:30:00","2014-01-22","17:30:00",17,201435005101,"6400 BLOCK N SMEDLEY ST",1100,"Fraud",20,"2014-01",-75.14602,40.051737
6,"O","2009-07-25 01:24:00","2009-07-25","01:24:00",1,200906039447,"600 BLOCK N 4TH ST",2300,"Public Drunkenness",5,"2009-07",-75.144722,39.96199
24,"2","2011-05-10 06:52:00","2011-05-10","18:52:00",18,201124036182,"2900 BLOCK C ST",700,"Recovered Stolen Motor Vehicle",17,"2011-05",-75.124235,39.993246
1,"F","2007-07-12 01:03:00","2007-07-12","01:03:00",1,200701022113,"2100 BLOCK SNYDER AVE",2600,"All Other Offenses",1,"2007-07",-75.181187,39.92582
35,"3","2013-01-10 09:07:00","2013-01-10","21:07:00",21,201335002123,"1900 BLOCK W NEDRO AVE",2600,"All Other Offenses",20,"2013-01",-75.153083,40.043606
17,"1","2013-09-07 08:44:00","2013-09-07","08:44:00",8,201317040120,"2100 BLOCK NAUDAIN ST",600,"Theft from Vehicle",13,"2013-09",-75.177499,39.945653
15,"2","2014-08-02 08:38:00","2014-08-02","20:38:00",20,201415069055,"2000 BLOCK E CHELTENHAM AV",600,"Thefts",11,"2014-08",-75.064529,40.016925
6,"G","2009-06-25 12:29:00","2009-06-25","12:29:00",12,200906033570,"200 BLOCK RACE ST",600,"Theft from Vehicle",5,"2009-06",-75.144548,39.953936
15,"1","2011-01-13 02:01:00","2011-01-13","14:01:00",14,201115003998,"1700 BLOCK DYRE ST",800,"Other Assaults",11,"2011-01",-75.076352,40.019694
24,"H","2008-12-07 11:31:00","2008-12-07","23:31:00",23,200824106035,"3300 BLOCK FRANKFORD AVE",1800,"Narcotic / Drug Law Violations",17,"2008-12",-75.107766,39.994286
19,"2","2013-05-30 03:12:00","2013-05-30","15:12:00",15,201319044863,"5400 BLOCK GIRARD AVE",400,"Aggravated Assault No Firearm",15,"2013-05",-75.228744,39.971065
19,"2","2015-09-09 07:21:00","2015-09-09","19:21:00",19,201519091482,"100 BLOCK N 60TH ST",2600,"All Other Offenses",15,"2015-09",-75.240475,39.963598
35,"D","2006-04-21 04:48:00","2006-04-21","16:48:00",16,200635033397,"400 BLOCK W DUNCANNON AVE",1800,"Narcotic / Drug Law Violations",20,"2006-04",-75.131009,40.030264
18,"2","2014-06-14 08:25:00","2014-06-14","20:25:00",20,201418034348,"5200 BLOCK ADDISON ST",2400,"Disorderly Conduct",14,"2014-06",-75.226831,39.95254
5,"3","2015-07-19 09:57:00","2015-07-19","21:57:00",21,201505012327,"7900 BLOCK HENRY AVE",200,"Rape",4,"2015-07",-75.232442,40.055435
26,"3","2014-05-12 11:00:00","2014-05-12","23:00:00",23,201426020890,"2300 BLOCK E HAROLD ST",1400,"Vandalism/Criminal Mischief",19,"2014-05",-75.121029,39.982254
14,"3","2014-01-26 09:27:00","2014-01-26","09:27:00",9,201414005986,"6600 BLOCK QUINCY ST",1400,"Vandalism/Criminal Mischief",10,"2014-01",-75.185673,40.049403
8,"2","2011-08-16 04:30:00","2011-08-16","04:30:00",4,201108033865,"9400 BLOCK ACADEMY RD",2600,"All Other Offenses",7,"2011-08",-75.009166,40.06624
39,"C","2006-05-11 08:02:00","2006-05-11","20:02:00",20,200639028398,"N 18TH ST & W WESTMORELAND ST",700,"Recovered Stolen Motor Vehicle",21,"2006-05",-75.158928,40.004018
2,"1","2012-05-15 11:56:00","2012-05-15","23:56:00",23,201202033472,"1500 BLOCK STEVENS ST",400,"Aggravated Assault No Firearm",2,"2012-05",-75.078113,40.035268
35,"3","2015-11-17 01:00:00","2015-11-17","13:00:00",13,201535100778,"5200 BLOCK N BROAD ST",600,"Theft from Vehicle",20,"2015-11",-75.146274,40.032248
18,"3","2016-02-19 08:58:00","2016-02-19","20:58:00",20,201618010794,"500 BLOCK S 43RD ST",600,"Thefts",14,"2016-02",-75.209098,39.948953
24,"O","2006-01-07 08:26:00","2006-01-07","20:26:00",20,200624002093,"3800 BLOCK M ST",2400,"Disorderly Conduct",17,"2006-01",-75.101321,40.004754
15,"G","2006-01-22 02:43:00","2006-01-22","02:43:00",2,200615008064,"4700 BLOCK LEIPER ST",1400,"Vandalism/Criminal Mischief",11,"2006-01",-75.085753,40.018444
26,"A","2009-03-25 01:12:00","2009-03-25","01:12:00",1,200926019067,"1000 BLOCK CANAL ST",2100,"DRIVING UNDER THE INFLUENCE",19,"2009-03",-75.134986,39.96476
22,"D","2008-07-19 01:01:00","2008-07-19","01:01:00",1,200822051625,"1500 BLOCK W YORK ST",200,"Rape",16,"2008-07",-75.158384,39.989699
25,"1","2009-11-23 10:10:00","2009-11-23","22:10:00",22,200925121793,"1300 BLOCK W ROOSEVELT BLVD",800,"Other Assaults",20,"2009-11",-75.148801,40.020197
39,"F","2008-05-23 01:57:00","2008-05-23","13:57:00",13,200839034767,"1600 BLOCK BLAVIS ST",700,"Recovered Stolen Motor Vehicle",21,"2008-05",-75.151978,40.021122
39,"B","2009-03-15 11:32:00","2009-03-15","23:32:00",23,200939015972,"1400 BLOCK W ALLEGHENY AVE",600,"Thefts",21,"2009-03",-75.152953,40.001563
16,"C","2009-05-12 07:31:00","2009-05-12","19:31:00",19,200916028237,"600 BLOCK N 32ND ST",600,"Thefts",12,"2009-05",-75.188984,39.965559
6,"1","2010-11-15 07:03:00","2010-11-15","07:03:00",7,201006062061,"900 BLOCK BUTTONWOOD ST",1400,"Vandalism/Criminal Mischief",5,"2010-11",-75.153142,39.960642
24,"M","2007-01-23 05:57:00","2007-01-23","17:57:00",17,200724006486,"2000 BLOCK RUSH ST",1800,"Narcotic / Drug Law Violations",17,"2007-01",-75.119623,39.988995
24,"2","2013-09-10 06:49:00","2013-09-10","18:49:00",18,201324080440,"400 BLOCK E INDIANA AV",2600,"All Other Offenses",17,"2013-09",-75.123634,39.994614
24,"1","2009-09-29 04:16:00","2009-09-29","16:16:00",16,200924086996,"3900 BLOCK M ST",1100,"Fraud",17,"2009-09",-75.100791,40.007251
17,"2","2014-10-18 07:48:00","2014-10-18","19:48:00",19,201417045775,"S 29TH ST / TASKER ST",1100,"Fraud",13,"2014-10",-75.19283,39.933637
25,"G","2007-08-22 08:21:00","2007-08-22","08:21:00",8,200725090245,"2700 BLOCK HOPE ST",500,"Burglary Residential",18,"2007-08",-75.131232,39.991671
39,"3","2010-03-28 07:40:00","2010-03-28","19:40:00",19,201039017443,"2000 BLOCK W CAMBRIA ST",800,"Other Assaults",21,"2010-03",-75.163854,39.99835
17,"E","2006-01-01 03:03:00","2006-01-01","03:03:00",3,200617000052,"1300 BLOCK S 18TH ST",2100,"DRIVING UNDER THE INFLUENCE",13,"2006-01",-75.174033,39.934965
16,"N","2007-09-17 02:22:00","2007-09-17","02:22:00",2,200716041733,"3500 BLOCK HAVERFORD AV",2600,"All Other Offenses",12,"2007-09",-75.19309,39.963856
15,"E","2007-04-29 04:08:00","2007-04-29","16:08:00",16,200715044570,"4100 BLOCK ROOSEVELT BLVD",1400,"Vandalism/Criminal Mischief",11,"2007-04",-75.107593,40.028315
15,"O","2007-06-01 04:45:00","2007-06-01","04:45:00",4,200715058431,"7500 BLOCK TORRESDALE AVE",800,"Other Assaults",11,"2007-06",-75.03029,40.032604
15,"2","2014-07-20 01:28:00","2014-07-20","01:28:00",1,201415063962,"6300 BLOCK GLENLOCH ST",800,"Other Assaults",11,"2014-07",-75.054961,40.022108
19,"2","2013-10-04 08:01:00","2013-10-04","20:01:00",20,201319086293,"5200 BLOCK FILBERT ST",2600,"All Other Offenses",15,"2013-10",-75.224747,39.960772
15,"2","2015-11-23 06:11:00","2015-11-23","18:11:00",18,201515115094,"6400 BLOCK TORRESDALE AV",600,"Thefts",11,"2015-11",-75.050761,40.022019
2,"3","2015-06-29 03:58:00","2015-06-29","03:58:00",3,201502041592,"7400 BLOCK ALMA ST",400,"Aggravated Assault No Firearm",2,"2015-06",-75.065099,40.053733
2,"2","2014-03-19 12:06:00","2014-03-19","00:06:00",0,201402015618,"4200 BLOCK E ROOSEVELT BLVD",600,"Thefts",2,"2014-03",-75.106568,40.029364
1,"1","2012-12-12 05:37:00","2012-12-12","17:37:00",17,201201058240,"2200 BLOCK JACKSON ST",600,"Thefts",1,"2012-12",-75.184646,39.925081
17,"3","2014-08-11 09:06:00","2014-08-11","21:06:00",21,201417033113,"1200 BLOCK S 16TH ST",2600,"All Other Offenses",13,"2014-08",-75.170499,39.936225
2,"D","2007-05-12 11:30:00","2007-05-12","11:30:00",11,200702031167,"1800 BLOCK AFTON ST",600,"Theft from Vehicle",2,"2007-05",-75.064328,40.057856
19,"H","2007-05-26 04:38:00","2007-05-26","16:38:00",16,200719033600,"1600 BLOCK N EDGEWOOD ST",800,"Other Assaults",15,"2007-05",-75.241046,39.976292
5,"3","2014-10-18 02:09:00","2014-10-18","14:09:00",14,201405017719,"7500 BLOCK VALLEY AVE",2600,"All Other Offenses",4,"2014-10",-75.233963,40.050247
2,"N","2007-04-09 11:25:00","2007-04-09","23:25:00",23,200702023077,"800 BLOCK MARCELLA ST",500,"Burglary Residential",2,"2007-04",-75.093145,40.031557
15,"T","2007-12-08 12:37:00","2007-12-08","00:37:00",0,200715131788,"4700 BLOCK WELLINGTON ST",300,"Robbery No Firearm",11,"2007-12",-75.036704,40.029307
9,"F","2008-01-22 10:33:00","2008-01-22","22:33:00",22,200809004145,"2300 BLOCK WALNUT ST",600,"Thefts",8,"2008-01",-75.17857,39.951169
39,"3","2013-06-09 12:21:00","2013-06-09","00:21:00",0,201339039672,"2600 BLOCK W CAMBRIA ST",2600,"All Other Offenses",21,"2013-06",-75.173312,39.999487
39,"3","2016-04-15 09:48:00","2016-04-15","21:48:00",21,201639030158,"3100 BLOCK N 23ST ST",1800,"Narcotic / Drug Law Violations",NA,"2016-04",NA,NA
22,"C","2008-02-28 10:06:00","2008-02-28","22:06:00",22,200822014402,"1900 BLOCK N 16TH ST",2400,"Disorderly Conduct",16,"2008-02",-75.160517,39.982189
24,"P","2008-05-28 09:31:00","2008-05-28","09:31:00",9,200824044665,"200 BLOCK E TUSCULUM ST",2600,"All Other Offenses",17,"2008-05",-75.127712,39.993201
2,"3","2014-06-07 01:17:00","2014-06-07","01:17:00",1,201402033851,"7100 BLOCK OXFORD AV",2600,"All Other Offenses",2,"2014-06",-75.085715,40.057261
24,"2","2014-03-26 07:46:00","2014-03-26","19:46:00",19,201424023303,"200 BLOCK E INDIANA AVE",1800,"Narcotic / Drug Law Violations",17,"2014-03",-75.127989,39.995175
19,"2","2015-11-19 12:20:00","2015-11-19","12:20:00",12,201519117701,"5900 BLOCK RACE ST",2400,"Disorderly Conduct",15,"2015-11",-75.238501,39.964821
25,"S","2007-01-01 09:56:00","2007-01-01","09:56:00",9,200725000155,"200 BLOCK W ONTARIO ST",1400,"Vandalism/Criminal Mischief",18,"2007-01",-75.134559,40.00236
35,"E","2009-08-18 12:10:00","2009-08-18","12:10:00",12,200935070533,"900 BLOCK W SPENCER AVE",600,"Theft from Vehicle",20,"2009-08",-75.135655,40.044919
25,"1","2011-07-21 08:57:00","2011-07-21","20:57:00",20,201125064195,"3700 BLOCK N BROAD ST",600,"Thefts",18,"2011-07",-75.151117,40.009609
35,"1","2011-07-03 12:31:00","2011-07-03","00:31:00",0,201135048912,"6000 BLOCK MASCHER ST",1400,"Vandalism/Criminal Mischief",20,"2011-07",-75.121971,40.041928
2,"G","2006-12-17 09:50:00","2006-12-17","09:50:00",9,200602084519,"2300 BLOCK COTTMAN AVE",600,"Thefts",2,"2006-12",-75.059188,40.047255
19,"1","2011-06-03 09:43:00","2011-06-03","09:43:00",9,201119049349,"1700 BLOCK N 60TH ST",1400,"Vandalism/Criminal Mischief",15,"2011-06",-75.240696,39.978079
39,"3","2015-03-02 02:39:00","2015-03-02","02:39:00",2,201539015979,"1900 BLOCK W SOMERSET ST",800,"Other Assaults",21,"2015-03",-75.16228,39.996622
16,"2","2011-07-08 12:20:00","2011-07-08","00:20:00",0,201116030198,"4200 BLOCK LANCASTER AV",2600,"All Other Offenses",12,"2011-07",-75.208701,39.967051
9,"J","2009-04-03 12:26:00","2009-04-03","12:26:00",12,200909015144,"1800 BLOCK VINE ST",800,"Other Assaults",8,"2009-04",-75.169551,39.959042
9,"3","2014-10-27 03:32:00","2014-10-27","15:32:00",15,201409043512,"600 BLOCK N 22ND ST",600,"Theft from Vehicle",8,"2014-10",-75.173861,39.967054
25,"2","2014-06-22 04:08:00","2014-06-22","04:08:00",4,201425051143,"100 BLOCK E LUZERNE ST",2600,"All Other Offenses",18,"2014-06",-75.126475,40.010754
16,"2","2010-05-17 08:45:00","2010-05-17","08:45:00",8,201016025346,"5100 BLOCK HAVERFORD AV",1400,"Vandalism/Criminal Mischief",12,"2010-05",-75.221981,39.964221
24,"P","2009-01-29 01:15:00","2009-01-29","13:15:00",13,200924007987,"200 BLOCK CAMBRIA ST",1800,"Narcotic / Drug Law Violations",18,"2009-01",-75.134245,39.994442
6,"3","2015-08-28 07:36:00","2015-08-28","07:36:00",7,201506040762,"400 BLOCK S 02ND ST",2600,"All Other Offenses",5,"2015-08",-75.145178,39.943106
19,"1","2010-06-09 01:17:00","2010-06-09","01:17:00",1,201019051963,"200 BLOCK N 65TH ST",400,"Aggravated Assault No Firearm",15,"2010-06",-75.249864,39.967341
3,"E","2007-04-03 10:51:00","2007-04-03","22:51:00",22,200703010732,"400 BLOCK SOUTH ST",2600,"All Other Offenses",3,"2007-04",-75.150409,39.941819
12,"2","2014-10-01 09:52:00","2014-10-01","21:52:00",21,201412074690,"2000 BLOCK S SIMPSON ST",2600,"All Other Offenses",9,"2014-10",-75.235668,39.927363
12,"2","2014-01-15 11:09:00","2014-01-15","23:09:00",23,201412003544,"6500 BLOCK CHESTER AV",2600,"All Other Offenses",9,"2014-01",-75.238653,39.928591
14,"A","2008-02-03 10:40:00","2008-02-03","10:40:00",10,200814009000,"7300 BLOCK N 21ST ST",800,"Other Assaults",10,"2008-02",-75.151878,40.066292
26,"L","2009-04-26 01:02:00","2009-04-26","01:02:00",1,200926027344,"700 BLOCK W GIRARD AVE",2400,"Disorderly Conduct",19,"2009-04",-75.148946,39.97042
19,"2","2011-05-15 12:39:00","2011-05-15","00:39:00",0,201119043438,"N 52ND ST / HAVERFORD AV",2600,"All Other Offenses",15,"2011-05",-75.224593,39.964905
24,"2","2012-02-29 12:05:00","2012-02-29","00:05:00",0,201224015426,"3100 BLOCK CUSTER ST",300,"Robbery No Firearm",17,"2012-02",-75.116748,39.995596
6,"3","2010-06-28 11:16:00","2010-06-28","11:16:00",11,201006035050,"500 BLOCK SAINT JAMES ST",600,"Thefts",5,"2010-06",-75.149818,39.946881
14,"B","2007-10-12 06:53:00","2007-10-12","18:53:00",18,200714078046,"5100 BLOCK GERMANTOWN AVE",1800,"Narcotic / Drug Law Violations",10,"2007-10",-75.165288,40.030191
16,"2","2016-01-09 12:05:00","2016-01-09","12:05:00",12,201616001264,"5100 BLOCK ARCH ST",1800,"Narcotic / Drug Law Violations",12,"2016-01",-75.222608,39.961292
25,"2","2010-01-28 12:32:00","2010-01-28","00:32:00",0,201025009160,"4700 BLOCK D ST",1800,"Narcotic / Drug Law Violations",18,"2010-01",-75.116298,40.02059
14,"4","2013-10-17 09:41:00","2013-10-17","21:41:00",21,201314078512,"7000 BLOCK STENTON AVE",1500,"Weapon Violations",10,"2013-10",-75.178062,40.066722
6,"2","2013-03-19 09:01:00","2013-03-19","09:01:00",9,201306012724,"200 BLOCK FLORIST ST",600,"Theft from Vehicle",5,"2013-03",-75.142891,39.9542
8,"3","2010-03-26 11:02:00","2010-03-26","11:02:00",11,201008012281,"12500 BLOCK DEERRUN RD",600,"Thefts",7,"2010-03",-74.972206,40.09345
17,"L","2008-03-09 03:11:00","2008-03-09","03:11:00",3,200817010882,"2500 BLOCK MORRIS ST",2600,"All Other Offenses",13,"2008-03",-75.186813,39.931562
6,"3","2016-06-21 08:31:00","2016-06-21","20:31:00",20,201606026734,"1200 BLOCK CHESTNUT ST",400,"Aggravated Assault No Firearm",5,"2016-06",-75.160251,39.950452
14,"3","2011-08-29 09:20:00","2011-08-29","21:20:00",21,201114064320,"W RITTENHOUSE ST / WAYNE AV",700,"Recovered Stolen Motor Vehicle",10,"2011-08",-75.181238,40.033107
2,"A","2007-06-27 10:23:00","2007-06-27","10:23:00",10,200702043050,"2300 BLOCK COTTMAN AVE",600,"Thefts",2,"2007-06",-75.058382,40.046868
25,"2","2011-08-22 04:18:00","2011-08-22","16:18:00",16,201125073718,"4200 BLOCK N 6TH ST",800,"Other Assaults",18,"2011-08",-75.13713,40.015727
5,"D","2009-04-16 12:36:00","2009-04-16","12:36:00",12,200905008947,"6000 BLOCK RIDGE AVE",600,"Thefts",4,"2009-04",-75.214137,40.032468
39,"S","2008-06-16 10:19:00","2008-06-16","22:19:00",22,200839041442,"4800 BLOCK PULASKI AVE",500,"Burglary Residential",21,"2008-06",-75.166864,40.022577
2,"2","2013-03-03 09:20:00","2013-03-03","09:20:00",9,201302013997,"500 BLOCK LEVICK ST",700,"Recovered Stolen Motor Vehicle",2,"2013-03",-75.094707,40.049015
6,"E","2007-03-09 07:47:00","2007-03-09","07:47:00",7,200706013709,"100 BLOCK S 11TH ST",600,"Thefts",5,"2007-03",-75.158664,39.949826
35,"E","2007-09-25 09:57:00","2007-09-25","21:57:00",21,200735086399,"500 BLOCK W SPENCER AVE",1800,"Narcotic / Drug Law Violations",20,"2007-09",-75.128875,40.044058
25,"I","2006-09-27 12:58:00","2006-09-27","12:58:00",12,200625103088,"N 8TH ST /W CAMBRIA ST",1800,"Narcotic / Drug Law Violations",18,"2006-09",-75.144443,39.995808
18,"I","2007-12-15 08:40:00","2007-12-15","08:40:00",8,200718081788,"200 BLOCK S SAINT BERNARD ST",700,"Motor Vehicle Theft",14,"2007-12",-75.220871,39.955169
23,"B","2006-11-22 07:54:00","2006-11-22","07:54:00",7,200623047576,"1400 BLOCK N 10TH ST",700,"Motor Vehicle Theft",16,"2006-11",-75.151963,39.973646
35,"3","2011-09-24 05:46:00","2011-09-24","17:46:00",17,201135071123,"6300 BLOCK N LAMBERT ST",1500,"Weapon Violations",20,"2011-09",-75.154481,40.051775
22,"1","2010-12-27 10:18:00","2010-12-27","22:18:00",22,201022118911,"2200 BLOCK N 22ND ST",1400,"Vandalism/Criminal Mischief",16,"2010-12",-75.1689,39.98929
2,"G","2006-08-09 04:51:00","2006-08-09","16:51:00",16,200602052360,"2100 BLOCK TYSON AVE",300,"Robbery No Firearm",2,"2006-08",-75.063116,40.042842
8,"1","2010-07-24 04:16:00","2010-07-24","04:16:00",4,201008031674,"8800 BLOCK COTTAGE ST",2400,"Disorderly Conduct",7,"2010-07",-75.010802,40.048917
18,"1","2014-08-26 11:03:00","2014-08-26","23:03:00",23,201418052370,"S 60TH ST / LOCUST ST",2600,"All Other Offenses",14,"2014-08",-75.241618,39.957775
35,"A","2009-03-22 06:42:00","2009-03-22","18:42:00",18,200935022668,"5200 BLOCK D ST",700,"Motor Vehicle Theft",20,"2009-03",-75.115304,40.029524
14,"J","2008-02-27 04:23:00","2008-02-27","16:23:00",16,200814015623,"100 BLOCK E POMONA ST",1400,"Vandalism/Criminal Mischief",10,"2008-02",-75.18023,40.044972
25,"1","2009-12-29 09:12:00","2009-12-29","21:12:00",21,200925132789,"N 9TH ST / W PIKE ST",2400,"Disorderly Conduct",18,"2009-12",-75.142114,40.011246
17,"B","2006-02-07 10:29:00","2006-02-07","10:29:00",10,200617006775,"2400 BLOCK REED ST",1300,"Receiving Stolen Property",13,"2006-02",-75.184213,39.935004
9,"2","2015-07-07 01:42:00","2015-07-07","13:42:00",13,201509028758,"1400 JOHN F KENNEDY BLVD",2600,"All Other Offenses",8,"2015-07",-75.164495,39.953499
8,"1","2010-09-10 07:17:00","2010-09-10","19:17:00",19,201008039205,"8200 BLOCK FRANKFORD AVE",2600,"All Other Offenses",7,"2010-09",-75.023848,40.04302
25,"P","2006-04-17 10:53:00","2006-04-17","22:53:00",22,200625040335,"900 BLOCK W HUNTING PARK AV",2600,"All Other Offenses",18,"2006-04",-75.141171,40.015792
19,"2","2016-05-04 05:27:00","2016-05-04","17:27:00",17,201619039766,"0 BLOCK N 52ND ST",2600,"All Other Offenses",15,"2016-05",-75.224767,39.9608
22,"1","2010-07-26 05:24:00","2010-07-26","05:24:00",5,201022068064,"1800 BLOCK N BROAD ST",2100,"DRIVING UNDER THE INFLUENCE",16,"2010-07",-75.157629,39.980283
19,"X","2006-11-26 05:55:00","2006-11-26","05:55:00",5,200619087365,"500 BLOCK N 55TH ST",1400,"Vandalism/Criminal Mischief",15,"2006-11",-75.230366,39.969001
8,"2","2011-01-24 01:32:00","2011-01-24","13:32:00",13,201108003268,"9500 BLOCK TORRESDALE AV",600,"Theft from Vehicle",7,"2011-01",-74.994996,40.053699
1,"2","2011-07-16 12:19:00","2011-07-16","00:19:00",0,201101032082,"S 19TH ST / OREGON AV",2600,"All Other Offenses",1,"2011-07",-75.179316,39.917788
35,"1","2011-12-13 03:23:00","2011-12-13","03:23:00",3,201135091122,"100 BLOCK W  GALE ST",700,"Motor Vehicle Theft",20,"2011-12",-75.121784,40.034547
17,"E","2006-03-13 06:00:00","2006-03-13","18:00:00",18,200617012809,"1700 BLOCK LATONA ST",400,"Aggravated Assault Firearm",13,"2006-03",-75.172269,39.93558
35,"G","2007-05-29 11:08:00","2007-05-29","23:08:00",23,200735046307,"4500 BLOCK N 20TH ST",2600,"All Other Offenses",20,"2007-05",-75.158051,40.022735
8,"3","2010-09-14 10:23:00","2010-09-14","10:23:00",10,201008039785,"100 BLOCK FRANKLIN MILLS BLVD",1400,"Vandalism/Criminal Mischief",7,"2010-09",-74.964666,40.090053
39,"1","2012-08-16 04:46:00","2012-08-16","16:46:00",16,201239056111,"300 BLOCK W SEYMOUR ST",700,"Recovered Stolen Motor Vehicle",21,"2012-08",-75.169112,40.023809
25,"1","2016-02-29 08:11:00","2016-02-29","08:11:00",8,201625016215,"4000 BLOCK OLD YORK RD",1400,"Vandalism/Criminal Mischief",18,"2016-02",-75.147165,40.01472
12,"L","2006-11-01 02:42:00","2006-11-01","02:42:00",2,200612086991,"S 58TH ST /HADFIELD ST",2600,"All Other Offenses",9,"2006-11",-75.234335,39.940892
14,"E","2006-12-05 10:28:00","2006-12-05","22:28:00",22,200614098222,"5100 BLOCK GERMANTOWN AV",700,"Recovered Stolen Motor Vehicle",10,"2006-12",-75.166071,40.030632
5,"I","2008-05-30 07:31:00","2008-05-30","19:31:00",19,200805013856,"7000 BLOCK VOIGT RD",800,"Other Assaults",4,"2008-05",-75.219718,40.046658
24,"D","2007-06-08 01:43:00","2007-06-08","01:43:00",1,200724047281,"2700 BLOCK E ALLEGHENY AVE",2100,"DRIVING UNDER THE INFLUENCE",17,"2007-06",-75.102538,39.984154
6,"3","2014-08-02 12:52:00","2014-08-02","00:52:00",0,201406034064,"700 BLOCK PINE ST",2600,"All Other Offenses",5,"2014-08",-75.153534,39.944086
14,"3","2014-06-05 06:08:00","2014-06-05","18:08:00",18,201414042532,"200 BLOCK CARPENTER LA",600,"Thefts",10,"2014-06",-75.195466,40.054943
25,"3","2013-03-25 08:58:00","2013-03-25","20:58:00",20,201325025432,"3300 BLOCK E ST",1800,"Narcotic / Drug Law Violations",18,"2013-03",-75.119048,39.998881
15,"1","2009-11-28 11:49:00","2009-11-28","23:49:00",23,200915130005,"1600 BLOCK BRIDGE ST",1400,"Vandalism/Criminal Mischief",11,"2009-11",-75.076071,40.022477
25,"2","2015-02-02 08:37:00","2015-02-02","20:37:00",20,201525009017,"300 BLOCK E ROOSEVELT BLVD",300,"Robbery Firearm",18,"2015-02",-75.119414,40.025894
39,"Q","2008-08-02 01:14:00","2008-08-02","13:14:00",13,200839054926,"3400 BLOCK CONRAD ST",800,"Other Assaults",21,"2008-08",-75.18881,40.011631
19,"1","2011-01-12 12:51:00","2011-01-12","12:51:00",12,201119003141,"1600 BLOCK N 61ST ST",600,"Thefts",15,"2011-01",-75.241894,39.975963
39,"3","2011-04-03 10:29:00","2011-04-03","22:29:00",22,201139018205,"1800 BLOCK W ALLEGHENY AVE",300,"Robbery Firearm",21,"2011-04",-75.159513,40.002414
14,"1","2011-02-08 11:17:00","2011-02-08","23:17:00",23,201114008858,"6300 BLOCK CRITTENDEN ST",2600,"All Other Offenses",10,"2011-02",-75.166145,40.057646
12,"1","2013-12-20 06:08:00","2013-12-20","06:08:00",6,201312091013,"8800 BLOCK TINICUM BLVD",600,"Thefts",9,"2013-12",-75.247068,39.88632
26,"1","2014-01-14 02:48:00","2014-01-14","14:48:00",14,201426001883,"100 BLOCK W HUNTINGDON ST",700,"Recovered Stolen Motor Vehicle",19,"2014-01",-75.131267,39.989265
22,"1","2015-02-14 12:41:00","2015-02-14","00:41:00",0,201522013176,"2100 BLOCK N BROAD ST",300,"Robbery No Firearm",16,"2015-02",-75.156234,39.986238
19,"M","2007-09-01 04:01:00","2007-09-01","04:01:00",4,200719058245,"6100 BLOCK CALLOWHILL ST",100,"Homicide - Criminal",15,"2007-09",-75.241957,39.96837
9,"3","2016-08-11 12:08:00","2016-08-11","12:08:00",12,201609032020,"1600 BLOCK GREEN ST",1400,"Vandalism/Criminal Mischief",8,"2016-08",-75.164432,39.964171
25,"1","2011-03-04 03:04:00","2011-03-04","15:04:00",15,201125020017,"3400 BLOCK N BROAD ST",600,"Thefts",18,"2011-03",-75.152174,40.004737
12,"4","2013-08-09 10:20:00","2013-08-09","22:20:00",22,201312055813,"1100 BLOCK S PEACH ST",2600,"All Other Offenses",9,"2013-08",-75.225191,39.942914
5,"N","2009-01-18 05:38:00","2009-01-18","17:38:00",17,200905001435,"900 BLOCK CALEDONIA ST",2600,"All Other Offenses",4,"2009-01",-75.232192,40.074867
2,"K","2007-08-02 07:36:00","2007-08-02","19:36:00",19,200702052288,"1400 BLOCK UNRUH AVE",2600,"All Other Offenses",2,"2007-08",-75.075385,40.043976
18,"1","2011-06-25 10:38:00","2011-06-25","10:38:00",10,201118038463,"5900 BLOCK WALNUT ST",500,"Burglary Residential",14,"2011-06",-75.240842,39.958819
18,"P","2007-05-14 01:37:00","2007-05-14","13:37:00",13,200718029654,"5800 BLOCK WALNUT ST",800,"Other Assaults",14,"2007-05",-75.238445,39.958523
15,"1","2010-12-17 10:15:00","2010-12-17","22:15:00",22,201015134365,"5200 BLOCK E ROOSEVELT BLVD",800,"Other Assaults",11,"2010-12",-75.087745,40.02973
15,"1","2011-09-28 10:46:00","2011-09-28","22:46:00",22,201115097461,"5200 BLOCK MARLOW ST",2600,"All Other Offenses",11,"2011-09",-75.07518,40.019687
2,"O","2008-08-29 01:53:00","2008-08-29","13:53:00",13,200802059004,"5900 BLOCK RISING SUN AV",600,"Theft from Vehicle",2,"2008-08",-75.101454,40.044763
24,"1","2015-08-31 12:33:00","2015-08-31","12:33:00",12,201524083646,"3900 BLOCK CORAL ST",800,"Other Assaults",17,"2015-08",-75.093102,40.003653
8,"H","2008-03-11 08:37:00","2008-03-11","20:37:00",20,200808011562,"3400 BLOCK MORRELL AVE",800,"Other Assaults",7,"2008-03",-74.98834,40.073646
25,"1","2012-09-09 04:55:00","2012-09-09","16:55:00",16,201225074575,"3600 BLOCK GERMANTOWN AVE",300,"Robbery No Firearm",18,"2012-09",-75.150449,40.007847
14,"M","2008-02-03 01:42:00","2008-02-03","13:42:00",13,200814009025,"0 BLOCK SLOCUM ST",800,"Other Assaults",10,"2008-02",-75.185749,40.053701
17,"H","2008-11-02 10:35:00","2008-11-02","22:35:00",22,200817054157,"2100 BLOCK CHRISTIAN ST",300,"Robbery Firearm",13,"2008-11",-75.178516,39.941607
15,"D","2007-08-15 02:13:00","2007-08-15","02:13:00",2,200715088212,"4600 BLOCK HORROCKS ST",2600,"All Other Offenses",11,"2007-08",-75.091229,40.017909
39,"3","2011-05-27 06:13:00","2011-05-27","18:13:00",18,201139030052,"2700 BLOCK N BONSALL ST",800,"Other Assaults",21,"2011-05",-75.169733,39.996172
35,"G","2007-09-07 08:04:00","2007-09-07","20:04:00",20,200735080310,"1300 BLOCK W WYOMING AVE",2100,"DRIVING UNDER THE INFLUENCE",20,"2007-09",-75.145751,40.024255
15,"C","2006-02-19 03:11:00","2006-02-19","15:11:00",15,200615018817,"1700 BLOCK CHURCH ST",400,"Aggravated Assault Firearm",11,"2006-02",-75.086439,40.010021
19,"1","2010-05-07 07:35:00","2010-05-07","19:35:00",19,201019040765,"N 66TH ST / MALVERN AVE",1800,"Narcotic / Drug Law Violations",15,"2010-05",-75.253499,39.979543
4,"M","2008-06-29 07:33:00","2008-06-29","19:33:00",19,200804029034,"2300 BLOCK S 11TH ST",800,"Other Assaults",3,"2008-06",-75.165133,39.920811
26,"1","2014-10-02 12:31:00","2014-10-02","00:31:00",0,201426051264,"700 BLOCK W HUNTINGDON ST",2600,"All Other Offenses",19,"2014-10",-75.144185,39.990926
8,"1","2012-07-16 09:44:00","2012-07-16","09:44:00",9,201208029963,"4400 BLOCK KENDRICK ST",600,"Theft from Vehicle",7,"2012-07",-75.014836,40.046773
22,"1","2014-04-16 07:33:00","2014-04-16","19:33:00",19,201422028035,"2100 BLOCK N CARLISLE ST",1700,"Other Sex Offenses (Not Commercialized)",16,"2014-04",-75.157433,39.98547
12,"3","2015-04-16 08:51:00","2015-04-16","20:51:00",20,201512028862,"2500 BLOCK HOBSON ST",2600,"All Other Offenses",9,"2015-04",-75.233881,39.919639
2,"2","2014-10-28 07:24:00","2014-10-28","19:24:00",19,201402066375,"5900 BLOCK PALMETTO ST",600,"Thefts",2,"2014-10",-75.099566,40.043904
6,"1","2015-06-10 08:59:00","2015-06-10","20:59:00",21,201506026359,"1000 BLOCK LEMON ST",2600,"All Other Offenses",5,"2015-06",-75.154152,39.963567
15,"N","2008-02-01 09:47:00","2008-02-01","09:47:00",9,200815011989,"2900 BLOCK PRINCETON AVE",1400,"Vandalism/Criminal Mischief",11,"2008-02",-75.054221,40.039873
2,"3","2010-04-03 06:53:00","2010-04-03","18:53:00",18,201002022080,"2300 BLOCK COTTMAN AV",1400,"Vandalism/Criminal Mischief",2,"2010-04",-75.058382,40.046868
2,"2","2011-06-30 04:56:00","2011-06-30","04:56:00",4,201102043064,"800 BLOCK FANSHAWE ST",500,"Burglary Residential",2,"2011-06",-75.085382,40.048614
15,"3","2010-04-09 05:20:00","2010-04-09","17:20:00",17,201015036350,"7100 BLOCK ERDRICK ST",1400,"Vandalism/Criminal Mischief",11,"2010-04",-75.041996,40.034162
18,"3","2010-08-28 09:10:00","2010-08-28","21:10:00",21,201018057457,"100 BLOCK S 36TH ST",600,"Thefts",14,"2010-08",-75.194578,39.954418
14,"3","2010-08-12 12:53:00","2010-08-12","12:53:00",12,201014059632,"200 BLOCK W HORTTER ST",600,"Theft from Vehicle",10,"2010-08",-75.188045,40.046976
22,"1","2009-10-24 02:20:00","2009-10-24","02:20:00",2,200922070527,"2000 BLOCK N BROAD ST",800,"Other Assaults",16,"2009-10",-75.156814,39.984008
6,"I","2006-02-06 04:16:00","2006-02-06","16:16:00",16,200606008257,"S 10TH ST /LUDLOW ST",600,"Theft from Vehicle",5,"2006-02",-75.156908,39.95074
15,"A","2008-05-31 10:28:00","2008-05-31","10:28:00",10,200815061467,"2600 BLOCK BRIDGE ST",500,"Burglary Residential",11,"2008-05",-75.066876,40.003934
18,"2","2010-11-17 11:12:00","2010-11-17","11:12:00",11,201018076779,"S 51ST ST / WEBSTER ST",400,"Aggravated Assault No Firearm",14,"2010-11",-75.22531,39.948249
2,"1","2012-01-26 11:14:00","2012-01-26","11:14:00",11,201202005786,"4600 BLOCK E ROOSEVELT BLVD",600,"Thefts",2,"2012-01",-75.099584,40.02849
12,"M","2009-07-12 07:42:00","2009-07-12","07:42:00",7,200912064285,"1500 BLOCK S 52ND ST",500,"Burglary Non-Residential",9,"2009-07",-75.216407,39.938514
9,"1","2011-08-31 05:19:00","2011-08-31","17:19:00",17,201109041653,"1500 BLOCK CHESTNUT ST",600,"Thefts",8,"2011-08",-75.167065,39.951214
35,"2","2012-07-06 07:45:00","2012-07-06","19:45:00",19,201235053143,"1300 BLOCK WAGNER AVE",1800,"Narcotic / Drug Law Violations",20,"2012-07",-75.143971,40.032138
35,"3","2012-11-17 08:22:00","2012-11-17","20:22:00",20,201235089373,"1800 BLOCK STENTON AVE",600,"Thefts",20,"2012-11",-75.149196,40.051003
14,"1","2012-06-13 11:19:00","2012-06-13","11:19:00",11,201214044904,"7400 BLOCK OGONTZ AVE",1100,"Fraud",10,"2012-06",-75.156357,40.067057
26,"2","2011-10-21 09:18:00","2011-10-21","09:18:00",9,201126058231,"500 BLOCK W THOMPSON ST",700,"Motor Vehicle Theft",19,"2011-10",-75.14476,39.971397
3,"2","2015-02-18 04:34:00","2015-02-18","16:34:00",16,201503010259,"1900 BLOCK S FRONT ST",500,"Burglary Residential",3,"2015-02",-75.147996,39.923534
26,"2","2010-08-31 09:04:00","2010-08-31","09:04:00",9,201026048791,"1000 BLOCK N 4TH ST",1400,"Vandalism/Criminal Mischief",19,"2010-08",-75.143716,39.967316
24,"2","2015-04-25 05:07:00","2015-04-25","17:07:00",17,201524035959,"3100 BLOCK REACH ST",2600,"All Other Offenses",17,"2015-04",-75.116256,39.995696
35,"M","2008-07-03 01:22:00","2008-07-03","01:22:00",1,200835061742,"5700 BLOCK N BEECHWOOD ST",2600,"All Other Offenses",20,"2008-07",-75.156924,40.042512
1,"2","2012-09-29 08:15:00","2012-09-29","20:15:00",20,201201046105,"2800 BLOCK S SMEDLEY ST",600,"Theft from Vehicle",1,"2012-09",-75.17524,39.915174
35,"2","2011-02-04 03:10:00","2011-02-04","15:10:00",15,201135008297,"5500 BLOCK OLD YORK RD",1800,"Narcotic / Drug Law Violations",20,"2011-02",-75.144598,40.036929
15,"2","2009-12-12 10:41:00","2009-12-12","10:41:00",10,200915135392,"6600 BLOCK WALKER ST",2600,"All Other Offenses",11,"2009-12",-75.051427,40.027791
16,"2","2010-04-17 06:27:00","2010-04-17","06:27:00",6,201016019555,"4900 BLOCK RENO ST",600,"Thefts",12,"2010-04",-75.218958,39.96666
2,"3","2013-06-27 06:46:00","2013-06-27","18:46:00",18,201302042075,"7900 BLOCK ALGON AV",2600,"All Other Offenses",2,"2013-06",-75.064297,40.064738
35,"R","2007-04-29 06:33:00","2007-04-29","18:33:00",18,200735035473,"W 66TH AV /N UBER ST",2600,"All Other Offenses",20,"2007-04",-75.15056,40.054715
2,"A","2008-11-16 02:42:00","2008-11-16","14:42:00",14,200802076576,"2300 BLOCK BLEIGH AV",600,"Theft from Vehicle",2,"2008-11",-75.058097,40.049818
14,"3","2013-01-08 10:01:00","2013-01-08","10:01:00",10,201314001897,"6800 BLOCK QUINCY ST",1400,"Vandalism/Criminal Mischief",10,"2013-01",-75.189438,40.050307
1,"E","2006-07-12 10:35:00","2006-07-12","22:35:00",22,200601024824,"S 18TH ST /SHUNK ST",2400,"Disorderly Conduct",1,"2006-07",-75.17744,39.91898
25,"2","2015-08-10 04:16:00","2015-08-10","16:16:00",16,201525065749,"4600 BLOCK WHITAKER AV",700,"Recovered Stolen Motor Vehicle",18,"2015-08",-75.115359,40.018799
15,"3","2010-10-21 12:55:00","2010-10-21","12:55:00",12,201015113806,"4000 BLOCK COTTMAN AVE",600,"Thefts",11,"2010-10",-75.040308,40.0365
22,"3","2012-02-02 09:21:00","2012-02-02","21:21:00",21,201222009545,"1100 BLOCK W GIRARD AVE",800,"Other Assaults",16,"2012-02",-75.15419,39.970835
22,"D","2008-05-02 07:17:00","2008-05-02","19:17:00",19,200822031111,"1700 BLOCK W DAUPHIN ST",700,"Recovered Stolen Motor Vehicle",16,"2008-05",-75.161271,39.988535
7,"2","2013-06-06 11:28:00","2013-06-06","11:28:00",11,201307017637,"9500 BLOCK NORTHEAST AV",500,"Burglary Residential",6,"2013-06",-75.043598,40.089019
12,"1","2010-10-16 10:00:00","2010-10-16","22:00:00",22,201012095675,"2500 BLOCK CARROLL ST",600,"Thefts",9,"2010-10",-75.234881,39.918943
24,"P","2008-08-21 09:47:00","2008-08-21","09:47:00",9,200824072516,"3000 BLOCK N LEE ST",1100,"Fraud",17,"2008-08",-75.129204,39.996102
2,"R","2007-07-20 07:28:00","2007-07-20","19:28:00",19,200702049281,"600 BLOCK GARLAND ST",300,"Robbery Firearm",2,"2007-07",-75.110368,40.034594
15,"O","2007-10-10 07:39:00","2007-10-10","19:39:00",19,200715110030,"4700 BLOCK MERIDIAN ST",600,"Thefts",11,"2007-10",-75.028125,40.033164
4,"A","2009-08-06 08:00:00","2009-08-06","20:00:00",20,200904034394,"0 BLOCK MIFFLIN ST",600,"Thefts",3,"2009-08",-75.143638,39.923506
15,"1","2010-12-16 12:35:00","2010-12-16","12:35:00",12,201015133874,"4600 BLOCK DITMAN ST",1100,"Fraud",11,"2010-12",-75.079574,40.011814
15,"G","2008-04-12 07:51:00","2008-04-12","19:51:00",19,200815040881,"1500 BLOCK FOULKROD ST",2600,"All Other Offenses",11,"2008-04",-75.083046,40.018175
35,"3","2016-05-04 07:13:00","2016-05-04","19:13:00",19,201635037602,"6000 BLOCK E WISTER ST",300,"Robbery Firearm",20,"2016-05",-75.158096,40.046172
35,"3","2013-04-12 06:38:00","2013-04-12","18:38:00",18,201335026048,"5900 BLOCK OLD YORK RD",800,"Other Assaults",20,"2013-04",-75.144376,40.04368
7,"2","2010-06-16 10:13:00","2010-06-16","10:13:00",10,201007023123,"1100 BLOCK SURREY RD",800,"Other Assaults",6,"2010-06",-75.049225,40.085665
8,"E","2007-06-15 09:48:00","2007-06-15","21:48:00",21,200708026476,"PENNYPACK ST / CRISPIN ST",2200,"Liquor Law Violations",7,"2007-06",-75.015334,40.050175
17,"3","2014-04-24 04:03:00","2014-04-24","16:03:00",16,201417015479,"1500 BLOCK S 24TH ST",300,"Robbery No Firearm",13,"2014-04",-75.184587,39.933363
18,"1","2014-03-11 07:20:00","2014-03-11","19:20:00",19,201418013240,"0 BLOCK S 52ND ST",300,"Robbery Firearm",14,"2014-03",-75.224906,39.959608
18,"2","2014-04-08 11:30:00","2014-04-08","11:30:00",11,201418019047,"5500 BLOCK WALNUT ST 2",1400,"Vandalism/Criminal Mischief",14,"2014-04",-75.232163,39.957831
25,"1","2012-05-16 10:09:00","2012-05-16","10:09:00",10,201225039094,"1100 BLOCK W SCHILLER ST",400,"Aggravated Assault No Firearm",18,"2012-05",-75.146645,40.00494
24,"1","2014-09-24 05:21:00","2014-09-24","17:21:00",17,201424083472,"1300 BLOCK E LUZERNE ST",800,"Other Assaults",17,"2014-09",-75.101286,40.007473
24,"O","2006-07-21 01:11:00","2006-07-21","01:11:00",1,200624066804,"3300 BLOCK KENSINGTON AV",2600,"All Other Offenses",17,"2006-07",-75.111001,39.997854
14,"A","2007-12-12 12:50:00","2007-12-12","12:50:00",12,200714093763,"7300 BLOCK N 18TH ST",600,"Theft from Vehicle",10,"2007-12",-75.145278,40.06669
12,"H","2008-12-28 05:24:00","2008-12-28","17:24:00",17,200812112265,"6600 BLOCK GUYER AV",600,"Thefts",9,"2008-12",-75.228643,39.918261
17,"3","2009-11-09 06:21:00","2009-11-09","18:21:00",18,200917055952,"S 16TH ST  / REED ST",800,"Other Assaults",13,"2009-11",-75.171094,39.933358
39,"3","2011-02-06 01:11:00","2011-02-06","01:11:00",1,201139006662,"2800 BLOCK N 22ND ST",2100,"DRIVING UNDER THE INFLUENCE",21,"2011-02",-75.167261,39.99725
22,"2","2010-03-31 09:44:00","2010-03-31","21:44:00",21,201022027290,"2500 BLOCK N NATRONA ST",1800,"Narcotic / Drug Law Violations",16,"2010-03",-75.184643,39.994701
18,"1","2016-06-11 10:00:00","2016-06-11","22:00:00",22,201618043086,"N 63RD ST / MARKET ST",1100,"Fraud",14,"2016-06",-75.246756,39.962714
2,"N","2007-08-18 01:06:00","2007-08-18","01:06:00",1,200702056146,"6100 BLOCK OXFORD AV",2600,"All Other Offenses",2,"2007-08",-75.088732,40.03854
18,"2","2012-12-28 03:20:00","2012-12-28","15:20:00",15,201218075361,"500 BLOCK S 54TH ST",600,"Theft from Vehicle",14,"2012-12",-75.23039,39.952444
18,"2","2010-01-27 07:05:00","2010-01-27","19:05:00",19,201018006223,"S 52ND ST / BALTIMORE AVE",2100,"DRIVING UNDER THE INFLUENCE",14,"2010-01",-75.227422,39.94778
3,"E","2006-07-04 02:18:00","2006-07-04","02:18:00",2,200603023771,"500 BLOCK BAINBRIDGE ST",2400,"Disorderly Conduct",3,"2006-07",-75.150982,39.940902
17,"1","2016-06-27 01:32:00","2016-06-27","13:32:00",13,201617029301,"2000 BLOCK CARPENTER ST",600,"Thefts",13,"2016-06",-75.177926,39.940444
25,"3","2016-08-13 08:02:00","2016-08-13","20:02:00",20,201625067832,"100 BLOCK W TUSCULUM ST",2600,"All Other Offenses",18,"2016-08",-75.132153,39.996543
35,"A","2008-03-05 04:41:00","2008-03-05","16:41:00",16,200835019970,"200 BLOCK E ALBANUS ST",1400,"Vandalism/Criminal Mischief",20,"2008-03",-75.120275,40.027107
12,"3","2011-10-29 07:51:00","2011-10-29","19:51:00",19,201112086433,"2300 BLOCK S 63RD ST",500,"Burglary Residential",9,"2011-10",-75.230466,39.926419
6,"3","2014-06-09 10:55:00","2014-06-09","10:55:00",10,201406024690,"1200 BLOCK MARKET ST",600,"Thefts",5,"2014-06",-75.159926,39.951876
2,"2","2015-06-17 07:19:00","2015-06-17","19:19:00",19,201502039027,"5800 BLOCK COLGATE ST",1800,"Narcotic / Drug Law Violations",2,"2015-06",-75.102768,40.042131
18,"2","2012-12-05 01:37:00","2012-12-05","13:37:00",13,201218070923,"S 57TH ST / BALTIMORE AVE",800,"Other Assaults",14,"2012-12",-75.237983,39.946341
3,"2","2010-05-26 02:15:00","2010-05-26","02:15:00",2,201003026608,"600 BLOCK DICKINSON ST",600,"Theft from Vehicle",3,"2010-05",-75.155023,39.929946
19,"M","2007-09-05 05:41:00","2007-09-05","17:41:00",17,200719059424,"6000 BLOCK CALLOWHILL ST HILL ST",800,"Other Assaults",15,"2007-09",-75.239519,39.968069
16,"2","2016-06-10 11:39:00","2016-06-10","11:39:00",11,201616024627,"4000 BLOCK FAIRMOUNT AV",2600,"All Other Offenses",12,"2016-06",-75.202652,39.965135
3,"3","2011-12-15 10:24:00","2011-12-15","10:24:00",10,201103083277,"1100 BLOCK MC KEAN ST",600,"Theft from Vehicle",3,"2011-12",-75.164748,39.925034
19,"2","2015-05-14 10:14:00","2015-05-14","22:14:00",22,201519045338,"0 BLOCK N 57TH ST",2100,"DRIVING UNDER THE INFLUENCE",15,"2015-05",-75.234674,39.962436
8,"A","2006-06-29 03:38:00","2006-06-29","15:38:00",15,200608028661,"8100 BLOCK STATE RD",2600,"All Other Offenses",7,"2006-06",-75.020763,40.031764
18,"3","2011-02-11 02:33:00","2011-02-11","14:33:00",14,201118007974,"4400 BLOCK CHESTNUT ST",2600,"All Other Offenses",14,"2011-02",-75.210038,39.956566
22,"2","2016-02-27 08:54:00","2016-02-27","08:54:00",8,201622015951,"1800 BLOCK N 25TH ST",1800,"Narcotic / Drug Law Violations",16,"2016-02",-75.175338,39.982869
19,"2","2016-05-22 10:00:00","2016-05-22","22:00:00",22,201619046167,"1400 BLOCK N HIRST ST",400,"Aggravated Assault Firearm",15,"2016-05",-75.243698,39.97265
22,"4","2011-10-10 06:24:00","2011-10-10","06:24:00",6,201122086025,"2200 BLOCK SEYBERT ST",1400,"Vandalism/Criminal Mischief",16,"2011-10",-75.172038,39.975362
22,"2","2015-07-16 12:50:00","2015-07-16","00:50:00",0,201522063531,"2100 BLOCK N 24TH ST",500,"Burglary Residential",16,"2015-07",-75.172712,39.986893
15,"3","2014-07-09 01:37:00","2014-07-09","01:37:00",1,201415059852,"4500 BLOCK SHEFFIELD AVE",1400,"Vandalism/Criminal Mischief",11,"2014-07",-75.030709,40.03517
23,"I","2006-05-31 09:07:00","2006-05-31","21:07:00",21,200623022006,"2000 BLOCK W CECIL B MOORE AVE",2600,"All Other Offenses",16,"2006-05",-75.167448,39.979887
39,"3","2011-02-18 08:12:00","2011-02-18","20:12:00",20,201139009096,"1700 BLOCK W ALLEGHENY AVE",800,"Other Assaults",21,"2011-02",-75.159185,40.002378
14,"2","2011-08-09 02:47:00","2011-08-09","14:47:00",14,201114058730,"5500 BLOCK GERMANTOWN AVE",1800,"Narcotic / Drug Law Violations",10,"2011-08",-75.173181,40.034587
35,"3","2015-09-20 07:26:00","2015-09-20","07:26:00",7,201535082415,"1500 BLOCK CONLYN ST",800,"Other Assaults",20,"2015-09",-75.145977,40.042484
3,"P","2007-12-06 11:56:00","2007-12-06","11:56:00",11,200703041365,"600 BLOCK SEARS ST",700,"Recovered Stolen Motor Vehicle",3,"2007-12",-75.154614,39.931968
19,"2","2015-04-02 01:09:00","2015-04-02","01:09:00",1,201519029217,"N 53RD ST / MARKET ST",2600,"All Other Offenses",14,"2015-04",-75.226853,39.960248
1,"1","2011-06-14 01:20:00","2011-06-14","01:20:00",1,201101026064,"S 28TH ST / POINT BREEZE AV",2600,"All Other Offenses",1,"2011-06",-75.192834,39.92608
6,"L","2006-01-29 01:43:00","2006-01-29","01:43:00",1,200606006356,"200 BLOCK N BROAD ST",500,"Burglary Non-Residential",5,"2006-01",-75.162627,39.956273
8,"D","2008-07-23 05:38:00","2008-07-23","17:38:00",17,200808036364,"10900 BLOCK ELLICOTT RD",500,"Burglary Residential",7,"2008-07",-74.979719,40.074715
15,"1","2009-10-26 03:33:00","2009-10-26","03:33:00",3,200915117634,"4700 BLOCK BATH ST",700,"Recovered Stolen Motor Vehicle",11,"2009-10",-75.064645,39.999639
16,"1","2016-09-01 08:59:00","2016-09-01","20:59:00",20,201616036980,"4000 BLOCK MARKET ST 304",600,"Theft from Vehicle",12,"2016-09",-75.203355,39.957375
2,"M","2007-11-11 10:53:00","2007-11-11","10:53:00",10,200702077308,"900 BLOCK FANSHAWE ST",1400,"Vandalism/Criminal Mischief",2,"2007-11",-75.085072,40.048447
12,"4","2014-07-10 11:02:00","2014-07-10","23:02:00",23,201412051027,"5700 BLOCK PENTRIDGE ST",2600,"All Other Offenses",9,"2014-07",-75.231965,39.94031
9,"K","2009-11-07 12:11:00","2009-11-07","12:11:00",12,200909054428,"1500 BLOCK BRANDYWINE ST",600,"Thefts",8,"2009-11",-75.163011,39.96332
25,"F","2007-05-18 08:45:00","2007-05-18","20:45:00",20,200725051610,"400 BLOCK E ROOSEVELT BLVD",1400,"Vandalism/Criminal Mischief",18,"2007-05",-75.116305,40.026334
18,"C","2008-02-25 06:30:00","2008-02-25","18:30:00",18,200818012905,"100 BLOCK S 38TH ST",2100,"DRIVING UNDER THE INFLUENCE",14,"2008-02",-75.198529,39.954365
15,"A","2006-07-10 11:37:00","2006-07-10","11:37:00",11,200615074761,"4600 BLOCK RICHMOND ST",500,"Burglary Residential",11,"2006-07",-75.068484,39.999917
3,"3","2012-03-16 10:17:00","2012-03-16","22:17:00",22,201203016468,"1300 BLOCK BIGLER ST",2600,"All Other Offenses",3,"2012-03",-75.169845,39.913952
35,"G","2008-05-11 04:13:00","2008-05-11","04:13:00",4,200835042899,"1200 BLOCK W COURTLAND ST",2600,"All Other Offenses",20,"2008-05",-75.144524,40.022455
17,"1","2009-11-24 11:57:00","2009-11-24","23:57:00",23,200917059061,"2000 BLOCK CATHARINE ST",2600,"All Other Offenses",13,"2009-11",-75.175748,39.941964
15,"2","2015-07-08 08:47:00","2015-07-08","20:47:00",20,201515066288,"5700 BLOCK FRANKFORD AVE",800,"Other Assaults",11,"2015-07",-75.073217,40.025448
6,"1","2014-09-11 09:29:00","2014-09-11","09:29:00",9,201406041017,"400 BLOCK N CHRISTOPHER COLUMBUS BLVD",500,"Burglary Non-Residential",5,"2014-09",-75.13803,39.957984
9,"R","2009-05-16 12:31:00","2009-05-16","00:31:00",0,200909022880,"1600 BLOCK BROWN ST",2600,"All Other Offenses",8,"2009-05",-75.163538,39.96826
6,"2","2010-01-28 01:30:00","2010-01-28","13:30:00",13,201006005162,"0 BLOCK BANK ST",1100,"Fraud",5,"2010-01",-75.145132,39.949226
12,"H","2008-05-28 08:50:00","2008-05-28","08:50:00",8,200812045382,"2500 BLOCK S 65TH ST",1400,"Vandalism/Criminal Mischief",9,"2008-05",-75.230348,39.922157
23,"L","2006-11-01 04:10:00","2006-11-01","16:10:00",16,200623044635,"2700 BLOCK W MASTER ST",700,"Recovered Stolen Motor Vehicle",16,"2006-11",-75.179799,39.97715
9,"G","2006-06-02 09:46:00","2006-06-02","09:46:00",9,200609026971,"1500 BLOCK MARKET ST",300,"Robbery Firearm",8,"2006-06",-75.165287,39.95255
12,"F","2007-12-27 12:05:00","2007-12-27","00:05:00",0,200712110790,"S 70TH ST & WHEELER ST",700,"Recovered Stolen Motor Vehicle",9,"2007-12",-75.23835,39.917985
25,"1","2014-03-05 12:30:00","2014-03-05","00:30:00",0,201425015982,"3800 BLOCK N 13TH ST",800,"Other Assaults",18,"2014-03",-75.148538,40.011063
2,"J","2006-08-20 09:29:00","2006-08-20","21:29:00",21,200602055077,"500 BLOCK KNORR ST",300,"Robbery No Firearm",2,"2006-08",-75.090783,40.054452
23,"K","2007-07-27 12:44:00","2007-07-27","00:44:00",0,200723030322,"2200 BLOCK CECIL B MOORE AV",2600,"All Other Offenses",16,"2007-07",-75.170927,39.980335
7,"3","2013-05-18 09:11:00","2013-05-18","21:11:00",21,201307015690,"13500 BLOCK BUSTLETON AVE",800,"Other Assaults",6,"2013-05",-75.013869,40.129004
12,"J","2006-05-25 08:56:00","2006-05-25","20:56:00",20,200612040137,"6100 BLOCK REINHARD ST",800,"Other Assaults",9,"2006-05",-75.232043,39.930601
35,"3","2011-01-13 06:41:00","2011-01-13","18:41:00",18,201135003067,"4900 BLOCK N SMEDLEY ST",500,"Burglary Residential",20,"2011-01",-75.151254,40.028351
22,"2","2014-08-09 01:51:00","2014-08-09","13:51:00",13,201422063731,"2900 BLOCK RIDGE AVE",2600,"All Other Offenses",16,"2014-08",-75.180878,39.986797
2,"3","2016-01-31 10:11:00","2016-01-31","22:11:00",22,201602006062,"7200 BLOCK BRADFORD ST",800,"Other Assaults",2,"2016-01",-75.059323,40.045865
1,"1","2011-12-04 11:09:00","2011-12-04","11:09:00",11,201101054434,"2300 BLOCK SNYDER AV",1400,"Vandalism/Criminal Mischief",1,"2011-12",-75.184714,39.926271
18,"1","2010-04-13 02:21:00","2010-04-13","02:21:00",2,201018022866,"S 57TH ST / CHESTNUT ST",2600,"All Other Offenses",14,"2010-04",-75.23519,39.95972
19,"O","2009-02-15 04:48:00","2009-02-15","16:48:00",16,200919013935,"W GIRARD AV  / MERION AV",600,"Theft from Vehicle",15,"2009-02",-75.216334,39.9728
35,"G","2006-12-24 02:16:00","2006-12-24","02:16:00",2,200635110159,"4500 BLOCK N BROAD ST",2600,"All Other Offenses",20,"2006-12",-75.148614,40.021537
25,"2","2013-04-02 07:05:00","2013-04-02","19:05:00",19,201325027852,"3900 BLOCK WHITAKER AVE",700,"Motor Vehicle Theft",18,"2013-04",-75.122202,40.009051
17,"B","2009-06-06 02:02:00","2009-06-06","02:02:00",2,200917025465,"2000 BLOCK FEDERAL ST",1800,"Narcotic / Drug Law Violations",13,"2009-06",-75.176796,39.937252
22,"1","2013-05-17 12:39:00","2013-05-17","00:39:00",0,201322039153,"1400 BLOCK W LEHIGH AV",2600,"All Other Offenses",16,"2013-05",-75.154647,39.993904
24,"1","2013-05-29 12:32:00","2013-05-29","00:32:00",0,201324046961,"1100 BLOCK E CAYUGA ST",2600,"All Other Offenses",17,"2013-05",-75.105109,40.014388
2,"2","2010-02-23 11:36:00","2010-02-23","23:36:00",23,201002012412,"6600 BLOCK RISING SUN AVE",800,"Other Assaults",2,"2010-02",-75.092795,40.052561
19,"A","2006-01-31 04:10:00","2006-01-31","16:10:00",16,200619008146,"7500 BLOCK WOODBINE AVE",800,"Other Assaults",15,"2006-01",-75.266605,39.975197
39,"3","2015-03-30 03:12:00","2015-03-30","15:12:00",15,201539024039,"N BROAD ST / W ALLEGHENY AVE",1100,"Fraud",18,"2015-03",-75.152928,40.001602
16,"1","2010-11-05 08:38:00","2010-11-05","20:38:00",20,201016056385,"3900 BLOCK ASPEN ST",1800,"Narcotic / Drug Law Violations",12,"2010-11",-75.200312,39.96653
18,"P","2008-09-11 12:26:00","2008-09-11","12:26:00",12,200818065844,"200 BLOCK S 57TH ST",1800,"Narcotic / Drug Law Violations",14,"2008-09",-75.235568,39.958174
39,"3","2013-04-03 12:38:00","2013-04-03","12:38:00",12,201339021503,"1400 BLOCK W CLEARFIELD ST",2600,"All Other Offenses",21,"2013-04",-75.1533,39.999975
12,"E","2006-08-09 05:51:00","2006-08-09","17:51:00",17,200612062445,"6900 BLOCK BUIST AVE",2400,"Disorderly Conduct",9,"2006-08",-75.234734,39.917019
26,"B","2007-12-03 08:01:00","2007-12-03","08:01:00",8,200726084527,"2600 BLOCK TILTON ST",1400,"Vandalism/Criminal Mischief",19,"2007-12",-75.114922,39.977171
25,"1","2015-05-04 12:58:00","2015-05-04","00:58:00",0,201525034709,"3700 BLOCK N 09TH ST",600,"Thefts",18,"2015-05",-75.142587,40.009338
25,"E","2009-07-20 10:34:00","2009-07-20","10:34:00",10,200925076048,"300 BLOCK E ERIE AV",600,"Thefts",18,"2009-07",-75.123295,40.007241
24,"1","2016-07-15 06:37:00","2016-07-15","06:37:00",6,201624068998,"3900 BLOCK ARCADIA ST",800,"Other Assaults",17,"2016-07",-75.093785,40.00363
77,"A","2016-02-04 09:33:00","2016-02-04","09:33:00",9,201677000689,"C TICKETING",600,"Thefts",NA,"2016-02",NA,NA
15,"1","2015-03-09 11:14:00","2015-03-09","11:14:00",11,201515021044,"4600 BLOCK OAKLAND ST",1100,"Fraud",11,"2015-03",-75.089761,40.01802
15,"1","2015-07-02 02:56:00","2015-07-02","14:56:00",14,201515063945,"4100 BLOCK FRANKFORD AVE",600,"Thefts",11,"2015-07",-75.091014,40.007405
9,"N","2006-11-24 11:36:00","2006-11-24","23:36:00",23,200609061064,"700 BLOCK N 24TH ST",300,"Robbery Firearm",8,"2006-11",-75.176416,39.969876
15,"1","2010-01-12 10:42:00","2010-01-12","22:42:00",22,201015004079,"4700 BLOCK FRANKFORD AVE",1800,"Narcotic / Drug Law Violations",11,"2010-01",-75.082911,40.017691
16,"L","2008-10-16 05:39:00","2008-10-16","05:39:00",5,200816058882,"800 BLOCK N 41ST ST",2600,"All Other Offenses",12,"2008-10",-75.205659,39.968171
35,"M","2007-11-27 02:51:00","2007-11-27","14:51:00",14,200735106511,"1900 BLOCK W OLNEY AVE",1100,"Fraud",20,"2007-11",-75.153455,40.039422
3,"3","2016-04-05 03:35:00","2016-04-05","15:35:00",15,201603018423,"1600 BLOCK S 12TH ST",1400,"Vandalism/Criminal Mischief",3,"2016-04",-75.164629,39.929953
17,"2","2010-09-01 07:19:00","2010-09-01","19:19:00",19,201017049307,"2500 BLOCK FEDERAL ST",800,"Other Assaults",13,"2010-09",-75.186823,39.938743
3,"E","2007-08-09 08:32:00","2007-08-09","20:32:00",20,200703027121,"S 4TH ST  / SOUTH ST",1100,"Fraud",3,"2007-08",-75.149182,39.941629
39,"F","2006-02-20 12:21:00","2006-02-20","12:21:00",12,200639010687,"4200 BLOCK N CARLISLE ST",800,"Other Assaults",21,"2006-02",-75.15049,40.017063
26,"A","2007-10-21 07:35:00","2007-10-21","19:35:00",19,200726075826,"2200 BLOCK RICHMOND ST",1400,"Vandalism/Criminal Mischief",19,"2007-10",-75.119196,39.973417
35,"1","2016-08-10 05:06:00","2016-08-10","17:06:00",17,201635068848,"B ST / E OLNEY AV",300,"Robbery No Firearm",20,"2016-08",-75.117554,40.034803
25,"2","2015-03-28 04:06:00","2015-03-28","16:06:00",16,201525023481,"400 BLOCK RISING SUN AVE BAY2",800,"Other Assaults",18,"2015-03",-75.134398,40.011733
14,"2","2011-04-12 10:54:00","2011-04-12","10:54:00",10,201114025102,"200 BLOCK ARMSTRONG ST",2600,"All Other Offenses",10,"2011-04",-75.16323,40.033887
35,"3","2015-06-20 03:48:00","2015-06-20","03:48:00",3,201535051799,"6500 BLOCK N 18TH ST",1700,"Other Sex Offenses (Not Commercialized)",20,"2015-06",-75.148161,40.053536
16,"2","2015-06-19 07:45:00","2015-06-19","07:45:00",7,201516026968,"4100 BLOCK WESTMINSTER AVE",2600,"All Other Offenses",12,"2015-06",-75.206264,39.970283
16,"L","2006-02-03 03:21:00","2006-02-03","15:21:00",15,200616005172,"800 BLOCK N 42ND ST",1100,"Fraud",12,"2006-02",-75.207871,39.968398
2,"H","2009-08-12 10:22:00","2009-08-12","10:22:00",10,200902053500,"6800 BLOCK SYLVESTER ST",500,"Burglary Residential",2,"2009-08",-75.067792,40.042357
19,"2","2010-01-17 01:00:00","2010-01-17","13:00:00",13,201019004675,"N ROBINSON ST / JEFFERSON ST",2100,"DRIVING UNDER THE INFLUENCE",15,"2010-01",-75.243248,39.978619
3,"P","2006-05-21 10:12:00","2006-05-21","10:12:00",10,200603017576,"500 BLOCK WILDER ST",1400,"Vandalism/Criminal Mischief",3,"2006-05",-75.153718,39.930246
26,"3","2016-05-29 08:31:00","2016-05-29","08:31:00",8,201626026836,"1600 BLOCK E WILT ST",600,"Theft from Vehicle",19,"2016-05",-75.129319,39.976406
1,"1","2009-11-04 11:37:00","2009-11-04","23:37:00",23,200901036109,"S BROAD ST / OREGON AVE",600,"Thefts",3,"2009-11",-75.171425,39.916767
26,"3","2015-06-12 07:09:00","2015-06-12","19:09:00",19,201526029398,"100 BLOCK E LEHIGH AVE",800,"Other Assaults",19,"2015-06",-75.129948,39.990733
16,"2","2016-02-03 03:48:00","2016-02-03","03:48:00",3,201616005283,"4000 BLOCK OGDEN ST",700,"Recovered Stolen Motor Vehicle",12,"2016-02",-75.20346,39.969448
24,"P","2006-03-16 11:09:00","2006-03-16","23:09:00",23,200624024599,"500 BLOCK E ALLEGHENY AV",2600,"All Other Offenses",17,"2006-03",-75.120789,39.997416
15,"A","2009-04-16 12:20:00","2009-04-16","12:20:00",12,200915038569,"4400 BLOCK GARDEN ST",1100,"Fraud",11,"2009-04",-75.071909,39.996466
26,"2","2012-02-15 09:22:00","2012-02-15","21:22:00",21,201226008550,"1400 BLOCK GERMANTOWN AVE",2100,"DRIVING UNDER THE INFLUENCE",19,"2012-02",-75.141499,39.972508
8,"D","2006-12-16 01:10:00","2006-12-16","13:10:00",13,200608056096,"1100 BLOCK FRANKLIN MILLS CIR",600,"Thefts",7,"2006-12",-74.964559,40.082355
18,"K","2008-06-10 12:51:00","2008-06-10","12:51:00",12,200818040501,"5000 BLOCK CHESTNUT ST",1100,"Fraud",14,"2008-06",-75.222483,39.95819
24,"1","2014-02-27 07:42:00","2014-02-27","19:42:00",19,201424015281,"1800 BLOCK E SEDGLEY AVE",1600,"Prostitution and Commercialized Vice",17,"2014-02",-75.101759,40.002823
15,"1","2012-05-12 06:00:00","2012-05-12","18:00:00",18,201215044119,"4500 BLOCK MELROSE ST",2600,"All Other Offenses",11,"2012-05",-75.078507,40.006641
25,"1","2011-08-13 09:24:00","2011-08-13","21:24:00",21,201125071354,"3800 BLOCK N PERCY ST",800,"Other Assaults",18,"2011-08",-75.142757,40.010617
26,"2","2009-12-05 10:37:00","2009-12-05","22:37:00",22,200926080437,"1700 BLOCK N 4TH ST",2100,"DRIVING UNDER THE INFLUENCE",19,"2009-12",-75.141713,39.976687
16,"2","2015-08-11 11:15:00","2015-08-11","23:15:00",23,201516035946,"N 47TH ST / WESTMINSTER AV",2600,"All Other Offenses",12,"2015-08",-75.215764,39.969103
26,"3","2011-10-01 03:15:00","2011-10-01","15:15:00",15,201126054467,"1300 BLOCK E SUSQUEHANNA AV",600,"Thefts",19,"2011-10",-75.125702,39.973895
6,"J","2006-01-20 06:49:00","2006-01-20","18:49:00",18,200606004474,"100 BLOCK S JUNIPER ST",600,"Thefts",5,"2006-01",-75.162848,39.950254
15,"2","2012-07-04 12:10:00","2012-07-04","12:10:00",12,201215063649,"2800 BLOCK LEVICK ST",700,"Recovered Stolen Motor Vehicle",11,"2012-07",-75.06399,40.032014
4,"I","2008-09-02 10:41:00","2008-09-02","22:41:00",22,200804040992,"2600 BLOCK S ALDER ST",2600,"All Other Offenses",3,"2008-09",-75.16483,39.917303
22,"3","2015-04-12 04:40:00","2015-04-12","16:40:00",16,201522031791,"1300 BLOCK N 17TH ST",1400,"Vandalism/Criminal Mischief",16,"2015-04",-75.163794,39.974546
2,"3","2014-06-16 05:17:00","2014-06-16","17:17:00",17,201402036020,"7400 BLOCK TABOR AV",600,"Theft from Vehicle",2,"2014-06",-75.078601,40.06161
18,"3","2013-05-15 10:57:00","2013-05-15","22:57:00",22,201318028126,"3400 BLOCK CHESTNUT ST",600,"Thefts",14,"2013-05",-75.192359,39.954454
17,"3","2009-10-27 12:17:00","2009-10-27","12:17:00",12,200917053348,"1500 BLOCK S BANCROFT ST",600,"Thefts",13,"2009-10",-75.171992,39.931912
15,"1","2013-07-30 11:43:00","2013-07-30","11:43:00",11,201315071935,"4300 BLOCK BERMUDA ST",800,"Other Assaults",11,"2013-07",-75.080298,40.004408
12,"3","2013-04-09 02:52:00","2013-04-09","14:52:00",14,201312022854,"2400 BLOCK S  67TH ST",400,"Aggravated Assault No Firearm",9,"2013-04",-75.23417,39.921546
24,"2","2010-10-05 09:27:00","2010-10-05","21:27:00",21,201024084347,"2800 BLOCK KENSINGTON AVE",1800,"Narcotic / Drug Law Violations",17,"2010-10",-75.122562,39.99148
15,"D","2009-02-22 12:32:00","2009-02-22","00:32:00",0,200915018224,"1500 BLOCK ADAMS AVE",500,"Burglary Residential",11,"2009-02",-75.092123,40.009074
26,"2","2012-07-11 02:08:00","2012-07-11","02:08:00",2,201226036825,"400 BLOCK W NORRIS ST",2100,"DRIVING UNDER THE INFLUENCE",19,"2012-07",-75.140713,39.981065
8,"2","2014-12-18 02:34:00","2014-12-18","14:34:00",14,201408048201,"3600 BLOCK MORRELL AVE",800,"Other Assaults",7,"2014-12",-74.987896,40.070095
9,"H","2009-03-25 09:44:00","2009-03-25","09:44:00",9,200909013553,"1700 BLOCK MARKET ST",600,"Thefts",8,"2009-03",-75.168502,39.952949
17,"3","2013-09-19 04:14:00","2013-09-19","16:14:00",16,201317042096,"2000 BLOCK MORRIS ST",500,"Burglary Residential",13,"2013-09",-75.178824,39.930627
26,"H","2008-11-28 11:21:00","2008-11-28","23:21:00",23,200826077401,"1600 BLOCK N FRONT ST",500,"Burglary Residential",19,"2008-11",-75.134419,39.974873
14,"2","2012-08-10 10:50:00","2012-08-10","22:50:00",22,201214060915,"6700 BLOCK CHEW AVE",1800,"Narcotic / Drug Law Violations",10,"2012-08",-75.1822,40.056113
35,"1","2016-08-02 10:15:00","2016-08-02","22:15:00",22,201635066806,"5800 BLOCK MASCHER ST",700,"Recovered Stolen Motor Vehicle",20,"2016-08",-75.123568,40.038787
25,"3","2010-07-01 09:46:00","2010-07-01","21:46:00",21,201025061634,"200 BLOCK W INDIANA AVE",1800,"Narcotic / Drug Law Violations",18,"2010-07",-75.134536,39.996027
15,"1","2016-06-14 10:42:00","2016-06-14","10:42:00",10,201615057470,"1000 BLOCK HAWORTH ST",1400,"Vandalism/Criminal Mischief",NA,"2016-06",NA,NA
39,"F","2009-03-17 08:36:00","2009-03-17","20:36:00",20,200939016344,"4500 BLOCK GREENE ST",1700,"Other Sex Offenses (Not Commercialized)",21,"2009-03",-75.16041,40.023469
12,"4","2012-08-27 04:52:00","2012-08-27","16:52:00",16,201212064209,"S 58TH ST  / WHITBY AV",300,"Robbery Firearm",9,"2012-08",-75.235036,39.941483
19,"3","2009-10-25 05:19:00","2009-10-25","17:19:00",17,200919097013,"2200 BLOCK N 52ND ST",800,"Other Assaults",15,"2009-10",-75.229143,39.990206
12,"3","2015-04-15 03:10:00","2015-04-15","15:10:00",15,201512028470,"2900 BLOCK S 74TH STREETST",600,"Theft from Vehicle",NA,"2015-04",NA,NA
15,"2","2014-04-24 10:10:00","2014-04-24","22:10:00",22,201415033399,"6500 BLOCK TULIP ST",1400,"Vandalism/Criminal Mischief",11,"2014-04",-75.047583,40.020703
22,"3","2016-07-25 02:55:00","2016-07-25","02:55:00",2,201622061550,"1500 BLOCK N 15TH ST",200,"Rape",16,"2016-07",-75.160025,39.976534
9,"U","2007-03-23 09:18:00","2007-03-23","21:18:00",21,200709013539,"1400 BLOCK ARCH ST",300,"Robbery Firearm",8,"2007-03",-75.163258,39.954481
14,"A","2006-03-13 05:13:00","2006-03-13","05:13:00",5,200614021182,"7300 BLOCK N 21ST ST",700,"Motor Vehicle Theft",10,"2006-03",-75.151728,40.066468
19,"L","2009-05-30 12:35:00","2009-05-30","00:35:00",0,200919048232,"200 BLOCK N FELTON ST",400,"Aggravated Assault No Firearm",15,"2009-05",-75.245067,39.96588
35,"Q","2006-11-22 09:59:00","2006-11-22","21:59:00",21,200635100692,"N 500  W ROOSEVELT LT BLVD",300,"Robbery Firearm",NA,"2006-11",NA,NA
15,"K","2007-05-27 01:51:00","2007-05-27","01:51:00",1,200715056252,"5300 BLOCK SAUL ST",2600,"All Other Offenses",11,"2007-05",-75.080064,40.025617
22,"3","2012-05-25 11:17:00","2012-05-25","23:17:00",23,201222043047,"1500 BLOCK N 19TH ST",800,"Other Assaults",16,"2012-05",-75.16636,39.977648
39,"2","2016-03-25 02:08:00","2016-03-25","14:08:00",14,201639023719,"3600 BLOCK N BROAD ST",1100,"Fraud",21,"2016-03",-75.151364,40.00902
22,"C","2009-03-29 05:54:00","2009-03-29","17:54:00",17,200922019277,"1600 BLOCK W MONTGOMERY AV",2600,"All Other Offenses",16,"2009-03",-75.160814,39.98068
18,"E","2009-03-14 09:11:00","2009-03-14","21:11:00",21,200918016764,"S 44TH ST  / SANSOM ST",1400,"Vandalism/Criminal Mischief",14,"2009-03",-75.209901,39.955809
6,"I","2008-08-06 10:00:00","2008-08-06","10:00:00",10,200806045174,"1000 BLOCK MARKET ST",600,"Thefts",5,"2008-08",-75.157666,39.951605
4,"J","2007-05-14 11:04:00","2007-05-14","11:04:00",11,200704020249,"400 BLOCK OREGON AVE",600,"Thefts",3,"2007-05",-75.156072,39.914755
39,"E","2007-09-26 10:30:00","2007-09-26","10:30:00",10,200739060021,"3900 BLOCK N 18TH ST",800,"Other Assaults",21,"2007-09",-75.156874,40.013198
22,"3","2013-09-14 12:37:00","2013-09-14","00:37:00",0,201322075385,"1700 BLOCK N BROAD ST",600,"Thefts",16,"2013-09",-75.157961,39.978769
9,"1","2016-04-23 06:20:00","2016-04-23","18:20:00",18,201609015652,"1800 BLOCK WALNUT ST",600,"Thefts",8,"2016-04",-75.171017,39.950229
16,"2","2015-06-08 11:02:00","2015-06-08","11:02:00",11,201516025132,"4500 BLOCK HAVERFORD AVE",1500,"Weapon Violations",12,"2015-06",-75.212412,39.962586
19,"N","2007-02-15 01:51:00","2007-02-15","13:51:00",13,200719009473,"1500 BLOCK N PEACH ST",700,"Recovered Stolen Motor Vehicle",15,"2007-02",-75.229063,39.976909
14,"1","2012-02-08 10:27:00","2012-02-08","22:27:00",22,201214010077,"7500 BLOCK FORREST AVE",800,"Other Assaults",10,"2012-02",-75.161421,40.068243
3,"2","2014-12-09 12:37:00","2014-12-09","12:37:00",12,201403074683,"2700 BLOCK S 03RD ST",600,"Thefts",3,"2014-12",-75.152573,39.914261
18,"A","2007-02-27 06:01:00","2007-02-27","18:01:00",18,200718012163,"3400 BLOCK CHESTNUT ST",600,"Theft from Vehicle",14,"2007-02",-75.191871,39.954308
16,"L","2008-03-09 01:22:00","2008-03-09","13:22:00",13,200816011439,"900 BLOCK N 43RD ST",800,"Other Assaults",12,"2008-03",-75.21032,39.971071
25,"I","2007-05-27 11:48:00","2007-05-27","11:48:00",11,200725055369,"2800 BLOCK N 9TH ST",1800,"Narcotic / Drug Law Violations",18,"2007-05",-75.145799,39.994467
6,"3","2009-12-18 12:33:00","2009-12-18","00:33:00",0,200906066318,"1200 BLOCK LOCUST ST",800,"Other Assaults",5,"2009-12",-75.161488,39.947795
9,"2","2016-03-02 10:56:00","2016-03-02","10:56:00",10,201609008102,"1500 BLOCK MARKET ST",1500,"Weapon Violations",8,"2016-03",-75.165287,39.95255
12,"3","2015-12-07 12:57:00","2015-12-07","12:57:00",12,201512096321,"6200 BLOCK EASTWICK AVE",700,"Recovered Stolen Motor Vehicle",9,"2015-12",-75.221885,39.921162
39,"2","2011-11-01 03:03:00","2011-11-01","15:03:00",15,201139064205,"1700 BLOCK W HUNTING PARK AVE",800,"Other Assaults",21,"2011-11",-75.156583,40.014612
3,"3","2016-05-17 07:10:00","2016-05-17","19:10:00",19,201603027831,"2000 BLOCK S 10TH ST",300,"Robbery No Firearm",3,"2016-05",-75.162675,39.92471
17,"3","2013-06-09 01:22:00","2013-06-09","01:22:00",1,201317025906,"1200 BLOCK S 15TH ST",1400,"Vandalism/Criminal Mischief",13,"2013-06",-75.169257,39.934607
1,"E","2009-08-14 08:19:00","2009-08-14","08:19:00",8,200901026574,"1400 BLOCK RITNER ST",800,"Other Assaults",1,"2009-08",-75.17132,39.920713
15,"1","2016-04-24 10:47:00","2016-04-24","10:47:00",10,201615038549,"4700 BLOCK FRANKFORD AVE",600,"Thefts",11,"2016-04",-75.082911,40.017691
14,"2","2010-12-01 01:16:00","2010-12-01","13:16:00",13,201014088771,"0 BLOCK PLEASANT ST",1400,"Vandalism/Criminal Mischief",10,"2010-12",-75.18572,40.05459
14,"1","2013-07-11 12:26:00","2013-07-11","12:26:00",12,201314051497,"6900 BLOCK E WISTER ST",600,"Thefts",10,"2013-07",-75.157444,40.058309
15,"2","2010-11-30 11:28:00","2010-11-30","11:28:00",11,201015128527,"1200 BLOCK SANGER ST",700,"Recovered Stolen Motor Vehicle",11,"2010-11",-75.081425,40.028236
24,"N","2008-08-28 12:44:00","2008-08-28","00:44:00",0,200824074853,"4000 BLOCK O ST",2600,"All Other Offenses",17,"2008-08",-75.096853,40.006958
15,"U","2009-05-30 04:58:00","2009-05-30","16:58:00",16,200915057868,"6900 BLOCK TORRESDALE AVE",1200,"Embezzlement",11,"2009-05",-75.043123,40.02607
3,"3","2015-02-05 10:49:00","2015-02-05","10:49:00",10,201503007545,"2100 BLOCK S BROAD ST",800,"Other Assaults",3,"2015-02",-75.169702,39.923754
39,"3","2012-03-14 06:25:00","2012-03-14","18:25:00",18,201239016536,"2700 BLOCK N RINGGOLD ST",2600,"All Other Offenses",21,"2012-03",-75.171164,39.997101
14,"2","2011-03-12 04:47:00","2011-03-12","16:47:00",16,201114017041,"5700 BLOCK GERMANTOWN AVE",2600,"All Other Offenses",10,"2011-03",-75.17494,40.036074
8,"A","2007-10-18 07:27:00","2007-10-18","19:27:00",19,200708048029,"8000 BLOCK FRANKFORD AVE",1400,"Vandalism/Criminal Mischief",7,"2007-10",-75.027117,40.041742
3,"3","2015-08-13 02:05:00","2015-08-13","14:05:00",14,201503050231,"2400 BLOCK S 11TH ST",2600,"All Other Offenses",3,"2015-08",-75.165585,39.918759
23,"L","2008-04-23 07:48:00","2008-04-23","19:48:00",19,200823018709,"2500 BLOCK W GIRARD AVE",600,"Thefts",16,"2008-04",-75.178583,39.97398
26,"3","2010-08-13 08:58:00","2010-08-13","08:58:00",8,201026045085,"1300 BLOCK E COLUMBIA AV",1400,"Vandalism/Criminal Mischief",19,"2010-08",-75.131862,39.972694
25,"E","2008-03-12 09:22:00","2008-03-12","09:22:00",9,200825025001,"300 BLOCK E COURTLAND ST",700,"Recovered Stolen Motor Vehicle",18,"2008-03",-75.119042,40.019226
8,"D","2008-03-10 10:23:00","2008-03-10","10:23:00",10,200808011286,"4200 BLOCK WOODHAVEN RD",1100,"Fraud",7,"2008-03",-74.967127,40.082169
24,"1","2012-01-19 04:13:00","2012-01-19","16:13:00",16,201224004457,"3500 BLOCK STOUTON ST",1800,"Narcotic / Drug Law Violations",17,"2012-01",-75.105105,39.999759
19,"N","2009-06-17 04:29:00","2009-06-17","04:29:00",4,200919054752,"1200 BLOCK N 55TH ST",800,"Other Assaults",15,"2009-06",-75.230767,39.97172
15,"H","2007-08-22 08:33:00","2007-08-22","20:33:00",20,200715090982,"5200 BLOCK DUFFIELD ST",2600,"All Other Offenses",11,"2007-08",-75.075996,40.020752
4,"E","2008-10-05 08:42:00","2008-10-05","08:42:00",8,200804046648,"500 BLOCK MERCY ST",700,"Recovered Stolen Motor Vehicle",3,"2008-10",-75.155021,39.9229
22,"D","2006-07-27 01:55:00","2006-07-27","13:55:00",13,200622047312,"N 18TH ST & W DAUPHIN ST",700,"Recovered Stolen Motor Vehicle",16,"2006-07",-75.162274,39.988715
24,"1","2014-11-24 05:01:00","2014-11-24","17:01:00",17,201424103288,"3300 BLOCK KENSINGTON AV",2600,"All Other Offenses",17,"2014-11",-75.111001,39.997854
39,"E","2009-01-19 10:33:00","2009-01-19","10:33:00",10,200939003782,"1400 BLOCK W PIKE ST",700,"Recovered Stolen Motor Vehicle",21,"2009-01",-75.150587,40.012337
18,"P","2006-06-29 01:03:00","2006-06-29","01:03:00",1,200618044783,"5900 BLOCK WALNUT ST",2600,"All Other Offenses",14,"2006-06",-75.239489,39.958651
16,"2","2015-03-03 06:30:00","2015-03-03","18:30:00",18,201516009107,"4500 BLOCK HAVERFORD AVE",800,"Other Assaults",12,"2015-03",-75.212412,39.962586
1,"1","2011-09-09 12:40:00","2011-09-09","12:40:00",12,201101041336,"2400 BLOCK S ROSEWOOD ST",2600,"All Other Offenses",1,"2011-09",-75.171169,39.920698
2,"F","2008-10-28 01:00:00","2008-10-28","01:00:00",1,200802072229,"7700 BLOCK HASBROOK AVE",500,"Burglary Residential",2,"2008-10",-75.085315,40.069974
5,"E","2009-03-13 11:54:00","2009-03-13","23:54:00",23,200905006143,"4100 BLOCK MAIN ST",2400,"Disorderly Conduct",4,"2009-03",-75.218534,40.022439
17,"B","2006-07-17 06:20:00","2006-07-17","18:20:00",18,200617037939,"1400 BLOCK S TAYLOR ST",1100,"Fraud",13,"2006-07",-75.185259,39.93479
14,"3","2016-04-03 05:01:00","2016-04-03","05:01:00",5,201614025411,"5400 BLOCK WAYNE AVE",800,"Other Assaults",10,"2016-04",-75.175572,40.029886
2,"I","2006-09-30 05:56:00","2006-09-30","17:56:00",17,200602065293,"1000 BLOCK LONGSHORE AVE",800,"Other Assaults",2,"2006-09",-75.079449,40.050043
12,"4","2013-01-13 08:23:00","2013-01-13","20:23:00",20,201312002934,"5600 BLOCK WARRINGTON AVE",800,"Other Assaults",9,"2013-01",-75.228996,39.939378
15,"3","2013-05-13 08:23:00","2013-05-13","08:23:00",8,201315043829,"2800 BLOCK KNORR ST",1400,"Vandalism/Criminal Mischief",11,"2013-05",-75.059479,40.037113
6,"J","2008-06-17 02:00:00","2008-06-17","14:00:00",14,200806034707,"N12TH ST / ARCH ST",600,"Thefts",NA,"2008-06",NA,NA
24,"O","2006-12-02 10:23:00","2006-12-02","10:23:00",10,200624110031,"800 BLOCK E WESTMORELAND ST",600,"Thefts",17,"2006-12",-75.114959,39.998294
15,"3","2015-03-21 09:07:00","2015-03-21","21:07:00",21,201515025527,"4200 BLOCK CHIPPENDALE ST",2400,"Disorderly Conduct",11,"2015-03",-75.033828,40.03828
24,"O","2006-12-13 08:38:00","2006-12-13","20:38:00",20,200624113419,"1000 BLOCK VENANGO ST",600,"Theft from Vehicle",18,"2006-12",-75.144124,40.00665
16,"C","2007-08-02 01:08:00","2007-08-02","01:08:00",1,200716034428,"600 BLOCK N 34TH ST",2600,"All Other Offenses",12,"2007-08",-75.19188,39.965209
9,"A","2009-06-03 07:08:00","2009-06-03","19:08:00",19,200909026368,"300 BLOCK S 15TH ST",800,"Other Assaults",8,"2009-06",-75.166539,39.947099
39,"J","2006-01-21 01:18:00","2006-01-21","01:18:00",1,200639004325,"N 21ST ST /W ERIE AVE",800,"Other Assaults",21,"2006-01",-75.162625,40.010722
12,"4","2013-09-27 10:30:00","2013-09-27","22:30:00",22,201312069085,"1200 BLOCK S 57TH ST",2600,"All Other Offenses",9,"2013-09",-75.236644,39.944633
6,"1","2010-02-23 10:16:00","2010-02-23","10:16:00",10,201006009329,"900 BLOCK HAMILTON ST",600,"Thefts",5,"2010-02",-75.15375,39.96019
24,"P","2008-07-28 10:43:00","2008-07-28","22:43:00",22,200824064995,"2800 BLOCK N SWANSON ST",2600,"All Other Offenses",17,"2008-07",-75.129176,39.992339
24,"2","2012-07-03 07:36:00","2012-07-03","19:36:00",19,201224058420,"E CLEARFIELD ST  / EMERALD ST",300,"Robbery No Firearm",17,"2012-07",-75.113819,39.992934
2,"1","2010-05-18 04:05:00","2010-05-18","16:05:00",16,201002033765,"5900 BLOCK ALMA ST",2600,"All Other Offenses",2,"2010-05",-75.082951,40.034856
9,"2","2012-04-30 10:02:00","2012-04-30","10:02:00",10,201209018133,"1700 BLOCK JOHN F KENNEDY BLVD",800,"Other Assaults",8,"2012-04",-75.168255,39.954062
15,"2","2014-10-01 06:03:00","2014-10-01","18:03:00",18,201415091842,"2900 BLOCK LEVICK ST",600,"Thefts",11,"2014-10",-75.062957,40.031437
24,"2","2013-11-09 05:27:00","2013-11-09","17:27:00",17,201324099154,"500 BLOCK E CAMBRIA ST",300,"Robbery No Firearm",17,"2013-11",-75.122218,39.992887
23,"O","2008-11-24 08:22:00","2008-11-24","20:22:00",20,200823054466,"N 29TH ST / CECIL B MOORE AVE",400,"Aggravated Assault No Firearm",16,"2008-11",-75.18191,39.981797
8,"3","2016-07-05 12:37:00","2016-07-05","12:37:00",12,201608025876,"2800 BLOCK BLACK LAKE PL",700,"Motor Vehicle Theft",7,"2016-07",-74.98316,40.109578
19,"1","2012-09-18 09:45:00","2012-09-18","21:45:00",21,201219077966,"1000 BLOCK MARLYN RD",300,"Robbery Firearm",15,"2012-09",-75.24935,39.978272
35,"A","2008-07-27 12:29:00","2008-07-27","12:29:00",12,200835070236,"200 BLOCK ROBAT ST",1400,"Vandalism/Criminal Mischief",20,"2008-07",-75.120643,40.029155
22,"2","2014-09-05 11:04:00","2014-09-05","11:04:00",11,201422072783,"2500 BLOCK N 28TH ST",1400,"Vandalism/Criminal Mischief",16,"2014-09",-75.177589,39.994111
25,"2","2010-11-02 01:01:00","2010-11-02","01:01:00",1,201025101922,"100 BLOCK E ROCKLAND ST",2600,"All Other Offenses",18,"2010-11",-75.123471,40.024559
39,"1","2012-03-30 12:43:00","2012-03-30","12:43:00",12,201239020142,"2900 BLOCK W WISHART ST",1100,"Fraud",21,"2012-03",-75.178169,40.004275
16,"O","2006-06-30 01:12:00","2006-06-30","13:12:00",13,200616030088,"N 41ST ST /W GIRARD AVE",300,"Robbery No Firearm",12,"2006-06",-75.206437,39.973889
15,"2","2010-02-09 12:00:00","2010-02-09","12:00:00",12,201015013596,"3100 BLOCK BARNETT ST",1400,"Vandalism/Criminal Mischief",11,"2010-02",-75.059031,40.02859
22,"1","2010-09-19 07:18:00","2010-09-19","19:18:00",19,201022087195,"2400 BLOCK N GARNET ST",600,"Theft from Vehicle",16,"2010-09",-75.163903,39.991507
15,"1","2016-02-21 10:32:00","2016-02-21","10:32:00",10,201615015107,"4700 BLOCK OAKLAND ST",700,"Motor Vehicle Theft",11,"2016-02",-75.087414,40.020298
14,"1","2009-11-24 12:36:00","2009-11-24","12:36:00",12,200914090243,"6800 BLOCK N 19TH ST",600,"Thefts",10,"2009-11",-75.148242,40.06039
16,"1","2014-01-18 11:11:00","2014-01-18","11:11:00",11,201416002566,"500 BLOCK N 35TH ST",600,"Thefts",12,"2014-01",-75.193024,39.963414
17,"3","2015-02-04 08:27:00","2015-02-04","20:27:00",20,201517004229,"1300 BLOCK S 20TH ST",500,"Burglary Residential",13,"2015-02",-75.177221,39.934646
8,"2","2015-06-24 05:46:00","2015-06-24","17:46:00",17,201508024167,"10800 BLOCK KNIGHTS RD",600,"Thefts",7,"2015-06",-74.981614,40.069609
5,"N","2008-11-18 09:56:00","2008-11-18","09:56:00",9,200805029626,"8300 BLOCK RIDGE AV",500,"Burglary Non-Residential",4,"2008-11",-75.238167,40.059833
19,"3","2011-06-16 08:05:00","2011-06-16","20:05:00",20,201119053502,"1600 BLOCK N LINDENWOOD ST",1800,"Narcotic / Drug Law Violations",15,"2011-06",-75.227735,39.979372
24,"3","2014-04-10 01:56:00","2014-04-10","13:56:00",13,201424027825,"3000 BLOCK E THOMPSON ST",500,"Burglary Residential",17,"2014-04",-75.105971,39.983132
39,"U","2006-08-07 01:54:00","2006-08-07","13:54:00",13,200639049709,"200 BLOCK APSLEY ST",2600,"All Other Offenses",21,"2006-08",-75.164365,40.022219
7,"J","2006-10-02 08:44:00","2006-10-02","08:44:00",8,200607031942,"13500 BLOCK PHILMONT AVE",600,"Theft from Vehicle",6,"2006-10",-75.013786,40.13111
19,"3","2012-07-21 12:35:00","2012-07-21","12:35:00",12,201219059339,"1700 BLOCK N ALLISON ST",2600,"All Other Offenses",15,"2012-07",-75.233224,39.978855
18,"1","2016-01-26 08:36:00","2016-01-26","20:36:00",20,201618005624,"5800 BLOCK WALNUT ST",700,"Recovered Stolen Motor Vehicle",14,"2016-01",-75.238445,39.958523
24,"2","2014-07-01 06:07:00","2014-07-01","06:07:00",6,201424055720,"3000 BLOCK POTTER ST",700,"Motor Vehicle Theft",17,"2014-07",-75.116943,39.995023
15,"F","2008-06-14 03:45:00","2008-06-14","03:45:00",3,200815067606,"1900 BLOCK CHURCH ST",800,"Other Assaults",11,"2008-06",-75.083924,40.008576
25,"P","2008-04-03 09:13:00","2008-04-03","21:13:00",21,200825033272,"4100 BLOCK OLD YORK RD",1600,"Prostitution and Commercialized Vice",18,"2008-04",-75.147269,40.014986
3,"3","2012-01-07 12:24:00","2012-01-07","00:24:00",0,201203001316,"2200 BLOCK S 7TH ST",2600,"All Other Offenses",3,"2012-01",-75.158428,39.921593
22,"C","2008-06-26 01:33:00","2008-06-26","01:33:00",1,200822045597,"1800 BLOCK N BROAD ST",2600,"All Other Offenses",16,"2008-06",-75.157629,39.980283
14,"1","2012-09-09 12:59:00","2012-09-09","00:59:00",0,201214068533,"STENTON AV / HAINES ST",1800,"Narcotic / Drug Law Violations",10,"2012-09",-75.158892,40.055778
35,"2","2014-06-06 03:38:00","2014-06-06","15:38:00",15,201435046133,"400 BLOCK W TABOR RD",300,"Robbery Firearm",20,"2014-06",-75.129324,40.034178
14,"2","2012-04-18 05:31:00","2012-04-18","17:31:00",17,201214029198,"BAYNTON ST / E ARMAT ST",2600,"All Other Offenses",10,"2012-04",-75.17059,40.038109
9,"H","2007-05-30 11:58:00","2007-05-30","11:58:00",11,200709025686,"1700 BLOCK CHESTNUT ST",600,"Thefts",8,"2007-05",-75.169584,39.951619
25,"S","2007-05-07 09:49:00","2007-05-07","21:49:00",21,200725046912,"3200 BLOCK N FRONT ST",2600,"All Other Offenses",18,"2007-05",-75.129306,39.998603
2,"3","2011-07-12 11:13:00","2011-07-12","11:13:00",11,201102046077,"7300 BLOCK CASTOR AVE",800,"Other Assaults",2,"2011-07",-75.064842,40.052593
14,"B","2009-09-19 10:26:00","2009-09-19","22:26:00",22,200914072821,"300 BLOCK E WISTER ST",400,"Aggravated Assault No Firearm",10,"2009-09",-75.161007,40.033854
14,"B","2008-02-15 08:37:00","2008-02-15","20:37:00",20,200814012449,"4600 BLOCK GERMANTOWN AVE",500,"Burglary Residential",10,"2008-02",-75.159938,40.025792
15,"2","2009-11-15 12:26:00","2009-11-15","00:26:00",0,200915124671,"5300 BLOCK GLENLOCH ST",600,"Theft from Vehicle",11,"2009-11",-75.067967,40.016231
19,"2","2012-06-21 12:34:00","2012-06-21","00:34:00",0,201219049612,"N 58TH ST / LANSDOWNE AV",2600,"All Other Offenses",15,"2012-06",-75.236814,39.97631
25,"P","2006-09-08 09:38:00","2006-09-08","21:38:00",21,200625095539,"4000 BLOCK N 13TH ST",2600,"All Other Offenses",18,"2006-09",-75.147992,40.013939
39,"1","2010-02-04 01:36:00","2010-02-04","01:36:00",1,201039006637,"4100 BLOCK RIDGE AVE",300,"Robbery Firearm",21,"2010-02",-75.193483,40.008569
14,"1","2011-08-20 03:18:00","2011-08-20","03:18:00",3,201114061828,"6200 BLOCK E WISTER ST",300,"Robbery Firearm",10,"2011-08",-75.157976,40.049667
7,"3","2010-05-03 09:40:00","2010-05-03","09:40:00",9,201007016836,"800 BLOCK WELTON ST",700,"Recovered Stolen Motor Vehicle",6,"2010-05",-75.013231,40.117538
24,"1","2011-06-01 10:01:00","2011-06-01","10:01:00",10,201124042793,"3300 BLOCK ARGYLE ST",1100,"Fraud",17,"2011-06",-75.111965,39.998299
22,"1","2016-04-21 12:47:00","2016-04-21","12:47:00",12,201622032676,"2100 BLOCK N GRATZ ST",2600,"All Other Offenses",16,"2016-04",-75.16365,39.985868
15,"2","2011-05-26 05:04:00","2011-05-26","17:04:00",17,201115052428,"1700 BLOCK SCATTERGOOD ST",500,"Burglary Residential",11,"2011-05",-75.074276,40.021564
15,"1","2014-09-30 02:45:00","2014-09-30","14:45:00",14,201415091318,"4400 BLOCK FRANKFORD AVE",2600,"All Other Offenses",11,"2014-09",-75.086775,40.013309
39,"J","2009-05-24 07:47:00","2009-05-24","19:47:00",19,200939033444,"2300 BLOCK W HUNTING PARK AVE",2600,"All Other Offenses",21,"2009-05",-75.166858,40.009869
23,"L","2008-04-27 01:45:00","2008-04-27","01:45:00",1,200823019241,"2700 BLOCK W GIRARD AV",2600,"All Other Offenses",16,"2008-04",-75.18049,39.974143
26,"3","2011-12-21 10:51:00","2011-12-21","10:51:00",10,201126069746,"2600 BLOCK KENSINGTON AVE",1600,"Prostitution and Commercialized Vice",19,"2011-12",-75.127384,39.988844
12,"3","2012-07-15 02:48:00","2012-07-15","02:48:00",2,201212052127,"2500 BLOCK S GROSS ST",2600,"All Other Offenses",9,"2012-07",-75.227692,39.923421
9,"1","2014-09-03 01:05:00","2014-09-03","01:05:00",1,201409034654,"1600 BLOCK CHESTNUT ST",600,"Thefts",8,"2014-09",-75.16766,39.951282
24,"D","2008-06-19 11:29:00","2008-06-19","23:29:00",23,200824052597,"2500 BLOCK E ALLEGHENY AVE",2200,"Liquor Law Violations",17,"2008-06",-75.105103,39.987047
39,"2","2015-02-04 01:37:00","2015-02-04","13:37:00",13,201539008945,"3600 BLOCK N 19TH ST",1800,"Narcotic / Drug Law Violations",21,"2015-02",-75.15957,40.008714
25,"1","2012-07-30 02:46:00","2012-07-30","14:46:00",14,201225062410,"3800 BLOCK N 9TH ST",600,"Thefts",18,"2012-07",-75.142438,40.01002
7,"A","2007-05-17 05:33:00","2007-05-17","17:33:00",17,200707015322,"1100 BLOCK RISING SUN PL",1400,"Vandalism/Criminal Mischief",6,"2007-05",-75.054178,40.082267
19,"O","2009-06-07 03:17:00","2009-06-07","03:17:00",3,200919051219,"4900 BLOCK PARKSIDE AVE",2100,"DRIVING UNDER THE INFLUENCE",15,"2009-06",-75.218418,39.979586
2,"G","2008-10-12 11:55:00","2008-10-12","23:55:00",23,200802068951,"6700 BLOCK CALVERT ST",2600,"All Other Offenses",2,"2008-10",-75.063877,40.037662
5,"3","2013-09-28 07:56:00","2013-09-28","07:56:00",7,201305016613,"700 BLOCK MANATAWNA AV",600,"Thefts",4,"2013-09",-75.243907,40.065975
3,"H","2009-07-03 12:37:00","2009-07-03","12:37:00",12,200903022279,"700 BLOCK SALTER ST",1400,"Vandalism/Criminal Mischief",3,"2009-07",-75.156203,39.938143
26,"N","2006-11-28 12:55:00","2006-11-28","00:55:00",0,200626089839,"900 BLOCK W BERKS ST",1400,"Vandalism/Criminal Mischief",19,"2006-11",-75.149558,39.980765
2,"3","2011-04-24 06:38:00","2011-04-24","06:38:00",6,201102025776,"800 BLOCK CHANDLER ST",1400,"Vandalism/Criminal Mischief",2,"2011-04",-75.080621,40.070641
14,"3","2011-04-11 07:15:00","2011-04-11","07:15:00",7,201114024781,"600 BLOCK W WALNUT LA",600,"Theft from Vehicle",10,"2011-04",-75.191937,40.032127
8,"1","2013-03-17 07:54:00","2013-03-17","19:54:00",19,201308010853,"2800 BLOCK WELSH RD",800,"Other Assaults",7,"2013-03",-75.028114,40.062526
35,"2","2011-05-14 12:03:00","2011-05-14","00:03:00",0,201135034764,"300 BLOCK W DUNCANNON AV",2600,"All Other Offenses",20,"2011-05",-75.1295,40.029982
16,"Q","2008-01-02 12:30:00","2008-01-02","00:30:00",0,200816000164,"N 48TH ST / WYALUSING AVE",2100,"DRIVING UNDER THE INFLUENCE",12,"2008-01",-75.217174,39.97036
3,"3","2012-08-23 01:22:00","2012-08-23","13:22:00",13,201203055018,"700 BLOCK RITNER ST",2600,"All Other Offenses",3,"2012-08",-75.159024,39.919133
2,"3","2011-10-20 02:42:00","2011-10-20","14:42:00",14,201102069132,"2300 BLOCK COTTMAN AVE",600,"Thefts",2,"2011-10",-75.058382,40.046868
12,"1","2011-07-19 10:19:00","2011-07-19","10:19:00",10,201112058231,"7700 BLOCK LINDBERGH BLVD",800,"Other Assaults",9,"2011-07",-75.240552,39.903868
26,"1","2014-03-17 11:32:00","2014-03-17","23:32:00",23,201426010927,"2600 BLOCK N 09TH ST",600,"Thefts",19,"2014-03",-75.146406,39.991657
26,"E","2007-12-24 07:26:00","2007-12-24","19:26:00",19,200726089261,"1600 BLOCK E BERK ST",300,"Robbery No Firearm",19,"2007-12",-75.129141,39.976708
15,"H","2009-02-15 12:30:00","2009-02-15","12:30:00",12,200915015856,"5100 BLOCK TORRESDALE AVE",1100,"Fraud",11,"2009-02",-75.071087,40.013072
35,"F","2009-05-14 05:15:00","2009-05-14","17:15:00",17,200935039016,"6900 BLOCK N 15TH ST",800,"Other Assaults",20,"2009-05",-75.142121,40.058473
35,"2","2012-11-11 01:51:00","2012-11-11","01:51:00",1,201235087676,"N 8TH ST / W LOUDON ST",2100,"DRIVING UNDER THE INFLUENCE",20,"2012-11",-75.138081,40.024937
19,"F","2007-03-20 12:07:00","2007-03-20","00:07:00",0,200719016828,"3900 BLOCK CITY LINE AV",600,"Theft from Vehicle",15,"2007-03",-75.210665,40.008561
1,"1","2012-07-28 09:50:00","2012-07-28","09:50:00",9,201201034945,"2100 BLOCK S CARLISLE ST",2600,"All Other Offenses",1,"2012-07",-75.170917,39.924498
15,"E","2007-11-22 06:06:00","2007-11-22","06:06:00",6,200715126188,"1000 BLOCK HAWORTH ST",600,"Theft from Vehicle",11,"2007-11",-75.088866,40.025775
14,"O","2006-12-31 12:53:00","2006-12-31","00:53:00",0,200614104713,"0 BLOCK CARPENTER LN",400,"Aggravated Assault Firearm",10,"2006-12",-75.188925,40.053079
2,"S","2006-06-25 05:41:00","2006-06-25","17:41:00",17,200602040983,"5500 BLOCK MIRIAM RD",800,"Other Assaults",2,"2006-06",-75.089727,40.03035
16,"1","2012-06-06 05:28:00","2012-06-06","17:28:00",17,201216024092,"3800 BLOCK MARKET ST",600,"Thefts",12,"2012-06",-75.19805,39.956711
1,"1","2012-12-15 08:17:00","2012-12-15","20:17:00",20,201201058811,"2500 BLOCK S 24TH ST",600,"Thefts",1,"2012-12",-75.187441,39.920288
3,"2","2015-03-01 02:27:00","2015-03-01","02:27:00",2,201503012644,"500 BLOCK WILDER ST",2100,"DRIVING UNDER THE INFLUENCE",3,"2015-03",-75.154558,39.930353
3,"3","2015-06-06 05:46:00","2015-06-06","17:46:00",17,201503034444,"2400 BLOCK S ISEMINGER ST",800,"Other Assaults",3,"2015-06",-75.16786,39.919936
26,"3","2011-01-07 09:39:00","2011-01-07","09:39:00",9,201126001204,"2500 BLOCK GUAL ST",600,"Theft from Vehicle",19,"2011-01",-75.121608,39.978474
22,"1","2014-01-24 08:00:00","2014-01-24","08:00:00",8,201422005541,"1700 BLOCK PAGE ST",1400,"Vandalism/Criminal Mischief",16,"2014-01",-75.161962,39.984366
6,"S","2007-05-22 09:00:00","2007-05-22","21:00:00",21,200706030338,"600 BLOCK N 8TH ST",2600,"All Other Offenses",5,"2007-05",-75.151663,39.962986
19,"O","2009-08-27 06:02:00","2009-08-27","18:02:00",18,200919078861,"5100 BLOCK LANCASTER AVE",600,"Thefts",15,"2009-08",-75.22439,39.976162
25,"3","2010-05-13 01:17:00","2010-05-13","01:17:00",1,201025044399,"3300 BLOCK HARTVILLE ST",800,"Other Assaults",18,"2010-05",-75.11938,39.999145
17,"L","2007-07-15 04:34:00","2007-07-15","04:34:00",4,200717032537,"1600 BLOCK S TANEY ST",600,"Theft from Vehicle",13,"2007-07",-75.18917,39.932782
19,"2","2016-01-30 01:41:00","2016-01-30","13:41:00",13,201619008528,"200 BLOCK N PEACH ST",1400,"Vandalism/Criminal Mischief",15,"2016-01",-75.226936,39.963469
24,"3","2014-04-11 03:27:00","2014-04-11","15:27:00",15,201424028214,"3300 BLOCK RICHMOND ST",600,"Thefts",17,"2014-04",-75.098947,39.98421
6,"J","2007-09-10 01:22:00","2007-09-10","13:22:00",13,200706054563,"1300 BLOCK MARKET ST",600,"Thefts",5,"2007-09",-75.161485,39.952073
16,"2","2011-06-10 01:03:00","2011-06-10","01:03:00",1,201116025319,"4900 BLOCK WYALUSING AVE",1800,"Narcotic / Drug Law Violations",12,"2011-06",-75.219034,39.970129
19,"H","2006-02-19 10:16:00","2006-02-19","22:16:00",22,200619013343,"N FELTON ST /HADDINGTON ST",400,"Aggravated Assault Firearm",15,"2006-02",-75.244754,39.976915
17,"3","2014-07-22 12:43:00","2014-07-22","00:43:00",0,201417029636,"1900 BLOCK WHARTON ST",2600,"All Other Offenses",13,"2014-07",-75.17555,39.935124
24,"3","2013-04-01 10:07:00","2013-04-01","10:07:00",10,201324027552,"3800 BLOCK ARAMINGO AV",600,"Thefts",17,"2013-04",-75.089516,39.997203
8,"3","2016-04-11 10:25:00","2016-04-11","22:25:00",22,201608014002,"12400 BLOCK BARBARY RD",600,"Thefts",7,"2016-04",-74.977225,40.100604
12,"H","2008-01-04 03:22:00","2008-01-04","15:22:00",15,200812001062,"6300 BLOCK ELMWOOD AVE",1100,"Fraud",9,"2008-01",-75.228168,39.92378
25,"3","2013-06-26 02:33:00","2013-06-26","02:33:00",2,201325054432,"3400 BLOCK N FRONT ST",800,"Other Assaults",18,"2013-06",-75.128348,40.002571
18,"1","2013-04-24 12:27:00","2013-04-24","12:27:00",12,201318023070,"6300 BLOCK MARKET ST",1800,"Narcotic / Drug Law Violations",14,"2013-04",-75.247212,39.962727
15,"B","2008-08-27 07:28:00","2008-08-27","07:28:00",7,200815098795,"2300 BLOCK DUNCAN ST",600,"Theft from Vehicle",11,"2008-08",-75.080533,40.005967
2,"3","2012-07-02 03:50:00","2012-07-02","15:50:00",15,201202045805,"7300 BLOCK TABOR AVE",800,"Other Assaults",2,"2012-07",-75.080341,40.059645
24,"2","2010-03-23 01:02:00","2010-03-23","13:02:00",13,201024023375,"2900 BLOCK ROSEHILL ST",2600,"All Other Offenses",17,"2010-03",-75.124664,39.994223
15,"1","2009-12-26 09:57:00","2009-12-26","09:57:00",9,200915140076,"1300 BLOCK WAKELING ST",2600,"All Other Offenses",11,"2009-12",-75.083205,40.021724
14,"4","2015-09-26 11:32:00","2015-09-26","11:32:00",11,201514078511,"8000 BLOCK TEMPLE RD",800,"Other Assaults",10,"2015-09",-75.169075,40.075287
2,"D","2007-09-25 09:35:00","2007-09-25","09:35:00",9,200702065537,"7900 BLOCK CASTOR AV",600,"Thefts",2,"2007-09",-75.05621,40.061847
19,"A","2006-06-20 03:20:00","2006-06-20","15:20:00",15,200619047265,"7500 BLOCK SHERWOOD RD",2600,"All Other Offenses",15,"2006-06",-75.267379,39.977766
15,"K","2007-03-23 10:28:00","2007-03-23","10:28:00",10,200715029711,"6400 BLOCK SACKETT ST",600,"Thefts",11,"2007-03",-75.058146,40.029074
12,"H","2006-01-20 08:47:00","2006-01-20","08:47:00",8,200612005267,"2400 BLOCK S 67TH ST",2600,"All Other Offenses",9,"2006-01",-75.233813,39.921245
3,"1","2013-07-19 10:24:00","2013-07-19","10:24:00",10,201303044405,"900 BLOCK S 04TH ST",500,"Burglary Residential",3,"2013-07",-75.150406,39.936384
39,"3","2011-04-12 05:58:00","2011-04-12","17:58:00",17,201139019929,"2800 BLOCK N BONSALL ST",2600,"All Other Offenses",21,"2011-04",-75.1691,39.998554
19,"3","2013-04-20 12:29:00","2013-04-20","12:29:00",12,201319031773,"5700 BLOCK STEWART ST",2600,"All Other Offenses",15,"2013-04",-75.236519,39.9775
19,"R","2007-05-26 07:45:00","2007-05-26","07:45:00",7,200719033513,"N 52ND ST  / MARKET ST",300,"Robbery Firearm",NA,"2007-05",-75.22487,39.960015
18,"2","2012-02-28 01:36:00","2012-02-28","13:36:00",13,201218010691,"5500 BLOCK PINE ST",2600,"All Other Offenses",14,"2012-02",-75.23247,39.954261
15,"N","2006-08-31 11:12:00","2006-08-31","23:12:00",23,200615095631,"3000 BLOCK PRINCETON AV",2600,"All Other Offenses",11,"2006-08",-75.053431,40.039328
22,"1","2011-09-22 10:19:00","2011-09-22","10:19:00",10,201122080710,"BROAD / CUMBERLAND T",600,"Thefts",NA,"2011-09",NA,NA
35,"F","2007-05-12 10:40:00","2007-05-12","10:40:00",10,200735040153,"6500 BLOCK N 6TH ST",600,"Theft from Vehicle",20,"2007-05",-75.129498,40.050549
8,"I","2008-08-20 09:06:00","2008-08-20","21:06:00",21,200808041372,"3200 BLOCK RED LION RD",600,"Theft from Vehicle",7,"2008-08",-74.994314,40.081597
25,"M","2009-03-01 07:34:00","2009-03-01","19:34:00",19,200925020957,"1200 BLOCK W RUSH ST",1800,"Narcotic / Drug Law Violations",18,"2009-03",-75.151367,39.99567
39,"2","2012-12-16 02:22:00","2012-12-16","14:22:00",14,201239083565,"2200 BLOCK W VENANGO ST",800,"Other Assaults",21,"2012-12",-75.16564,40.009439
24,"2","2013-04-15 03:23:00","2013-04-15","03:23:00",3,201324032269,"1900 BLOCK E BIRCH ST",2600,"All Other Offenses",17,"2013-04",-75.117816,39.991836
35,"2","2014-01-25 01:53:00","2014-01-25","01:53:00",1,201435005706,"200 BLOCK W SHELDON ST",800,"Other Assaults",20,"2014-01",-75.127108,40.028626
15,"2","2014-05-07 02:05:00","2014-05-07","02:05:00",2,201415037461,"5400 BLOCK TORRESDALE AV",2600,"All Other Offenses",11,"2014-05",-75.066677,40.014041
22,"1","2016-03-30 08:33:00","2016-03-30","20:33:00",20,201622025983,"2400 BLOCK N PARK AVE",500,"Burglary Residential",16,"2016-03",-75.15409,39.989925
19,"A","2007-05-29 03:20:00","2007-05-29","15:20:00",15,200719034274,"7500 BLOCK WOODBINE AVE",800,"Other Assaults",15,"2007-05",-75.266605,39.975197
19,"M","2009-05-27 04:58:00","2009-05-27","16:58:00",16,200919047277,"5800 BLOCK GIRARD AVE",2600,"All Other Offenses",15,"2009-05",-75.235709,39.970294
1,"G","2009-05-08 01:59:00","2009-05-08","13:59:00",13,200901014758,"1900 BLOCK JOHNSTON ST",600,"Thefts",1,"2009-05",-75.180383,39.916673
23,"1","2009-10-18 01:49:00","2009-10-18","01:49:00",1,200923049797,"1600 BLOCK CECIL B MOORE AV",2600,"All Other Offenses",16,"2009-10",-75.161169,39.979077
19,"2","2013-08-17 12:03:00","2013-08-17","00:03:00",0,201319070069,"5300 BLOCK MARKET ST",800,"Other Assaults",15,"2013-08",-75.228079,39.960442
2,"1","2011-11-16 11:38:00","2011-11-16","23:38:00",23,201102075611,"6800 BLOCK LARGE ST",500,"Burglary Residential",2,"2011-11",-75.070538,40.043462
2,"2","2014-09-21 10:40:00","2014-09-21","22:40:00",22,201402057734,"5500 BLOCK HILL CREEK CIR",2600,"All Other Offenses",2,"2014-09",-75.110902,40.036337
1,"C","2006-02-26 09:48:00","2006-02-26","09:48:00",9,200601007038,"2000 BLOCK S HEMBERGER ST",1400,"Vandalism/Criminal Mischief",1,"2006-02",-75.183727,39.926952
15,"K","2009-01-29 03:33:00","2009-01-29","03:33:00",3,200915009395,"5400 BLOCK OXFORD AVE",300,"Robbery Firearm",11,"2009-01",-75.08475,40.031197
22,"2","2011-12-04 06:55:00","2011-12-04","18:55:00",18,201122102346,"2600 BLOCK N 28TH ST",1400,"Vandalism/Criminal Mischief",16,"2011-12",-75.177066,39.9961
24,"2","2014-12-05 06:41:00","2014-12-05","18:41:00",18,201424106416,"2700 BLOCK A ST",1800,"Narcotic / Drug Law Violations",17,"2014-12",-75.129028,39.990672
15,"2","2009-09-29 06:55:00","2009-09-29","18:55:00",18,200915107650,"6600 BLOCK VANDIKE ST",1400,"Vandalism/Criminal Mischief",11,"2009-09",-75.047902,40.022846
24,"O","2007-03-01 01:46:00","2007-03-01","01:46:00",1,200724016492,"900 BLOCK E SCHILLER ST",1800,"Narcotic / Drug Law Violations",17,"2007-03",-75.112349,40.000472
35,"H","2008-10-12 04:00:00","2008-10-12","04:00:00",4,200835095917,"N BROAD ST  / W WYOMING AV",400,"Aggravated Assault No Firearm",20,"2008-10",-75.147897,40.024563
1,"1","2012-06-22 04:33:00","2012-06-22","16:33:00",16,201201028701,"2600 BLOCK S BROAD ST",600,"Thefts",1,"2012-06",-75.171185,39.918143
25,"K","2007-02-10 10:58:00","2007-02-10","10:58:00",10,200725013977,"700 BLOCK W TIOGA ST",600,"Thefts",18,"2007-02",-75.141593,40.00489
5,"B","2006-02-12 07:03:00","2006-02-12","19:03:00",19,200605003461,"3800 BLOCK TERRACE ST",500,"Burglary Residential",4,"2006-02",-75.212001,40.019736
16,"J","2009-03-22 12:15:00","2009-03-22","00:15:00",0,200916016527,"4000 BLOCK LANCASTER AV",2600,"All Other Offenses",12,"2009-03",-75.202418,39.963138
16,"2","2015-01-03 11:26:00","2015-01-03","11:26:00",11,201516000347,"600 BLOCK N PRESTON ST",2600,"All Other Offenses",12,"2015-01",-75.204038,39.962759
39,"U","2009-03-18 12:38:00","2009-03-18","00:38:00",0,200939016375,"200 BLOCK W SEYMOUR ST",1800,"Narcotic / Drug Law Violations",21,"2009-03",-75.167612,40.025337
17,"1","2014-08-16 10:51:00","2014-08-16","22:51:00",22,201417033929,"500 BLOCK S 21ST ST",300,"Robbery No Firearm",13,"2014-08",-75.176806,39.946099
9,"U","2008-03-24 04:49:00","2008-03-24","16:49:00",16,200809015819,"1500 BLOCK CHERRY ST",1400,"Vandalism/Criminal Mischief",8,"2008-03",-75.164685,39.955502
12,"4","2010-11-11 11:34:00","2010-11-11","11:34:00",11,201012103793,"1600 BLOCK S FRAZIER ST",800,"Other Assaults",9,"2010-11",-75.227407,39.937669
25,"3","2013-01-09 09:35:00","2013-01-09","09:35:00",9,201325002268,"3100 BLOCK N DARIEN ST",1400,"Vandalism/Criminal Mischief",18,"2013-01",-75.144047,40.000154
5,"1","2010-09-15 07:43:00","2010-09-15","07:43:00",7,201005019528,"4000 BLOCK MITCHELL ST",1400,"Vandalism/Criminal Mischief",4,"2010-09",-75.210998,40.025912
6,"1","2011-12-16 03:03:00","2011-12-16","15:03:00",15,201106063917,"700 BLOCK N 2ND ST",600,"Thefts",5,"2011-12",-75.141018,39.962424
2,"O","2006-10-06 07:57:00","2006-10-06","19:57:00",19,200602066770,"400 BLOCK LARDNER ST",800,"Other Assaults",2,"2006-10",-75.100329,40.047155
6,"2","2012-09-18 06:25:00","2012-09-18","18:25:00",18,201206046389,"UNIT S  8TH ST",700,"Motor Vehicle Theft",NA,"2012-09",NA,NA
26,"T","2009-05-21 08:47:00","2009-05-21","20:47:00",20,200926034124,"100 BLOCK W DAUPHIN ST",1800,"Narcotic / Drug Law Violations",19,"2009-05",-75.132264,39.984732
3,"E","2006-11-29 12:51:00","2006-11-29","00:51:00",0,200603043220,"300 BLOCK SOUTH ST",2100,"DRIVING UNDER THE INFLUENCE",3,"2006-11",-75.14763,39.941392
15,"O","2009-06-28 10:22:00","2009-06-28","10:22:00",10,200915070958,"4700 BLOCK MARPLE ST",2600,"All Other Offenses",11,"2009-06",-75.029731,40.032813
22,"1","2013-03-31 08:00:00","2013-03-31","20:00:00",19,201322024856,"2100 BLOCK N CAMAC ST",500,"Burglary Residential",16,"2013-03",-75.153372,39.98573
6,"2","2013-10-18 10:58:00","2013-10-18","10:58:00",10,201306055196,"0 BLOCK DOCK ST",1100,"Fraud",5,"2013-10",-75.142574,39.94524
17,"A","2008-09-13 04:57:00","2008-09-13","16:57:00",16,200817046218,"1400 BLOCK CASTLE AV",600,"Theft from Vehicle",13,"2008-09",-75.169473,39.928704
6,"3","2013-09-14 03:13:00","2013-09-14","03:13:00",3,201306048694,"100 BLOCK S 12TH ST",2600,"All Other Offenses",5,"2013-09",-75.16027,39.950381
18,"H","2007-01-02 12:04:00","2007-01-02","00:04:00",0,200718000231,"4800 BLOCK WALNUT ST",600,"Thefts",14,"2007-01",-75.217686,39.955944
39,"3","2010-09-23 05:34:00","2010-09-23","17:34:00",17,201039059196,"3000 BLOCK N 21ST ST",1400,"Vandalism/Criminal Mischief",21,"2010-09",-75.164704,40.001425
7,"1","2013-07-05 01:54:00","2013-07-05","01:54:00",1,201307020955,"8400 BLOCK ALGON AVE",500,"Burglary Residential",6,"2013-07",-75.05557,40.073465
15,"K","2008-01-01 03:17:00","2008-01-01","03:17:00",3,200815000108,"1300 BLOCK E CHELTENHAM AVE",800,"Other Assaults",11,"2008-01",-75.084202,40.0314
14,"1","2010-07-11 07:31:00","2010-07-11","19:31:00",19,201014050302,"6300 BLOCK ANDERSON ST",1400,"Vandalism/Criminal Mischief",10,"2010-07",-75.169238,40.057252
25,"3","2012-11-23 07:25:00","2012-11-23","19:25:00",19,201225097593,"500 BLOCK W ANNSBURY ST",1800,"Narcotic / Drug Law Violations",18,"2012-11",-75.134047,40.020343
9,"O","2006-05-18 10:30:00","2006-05-18","10:30:00",10,200609024235,"700 BLOCK PENNOCK ST",600,"Theft from Vehicle",8,"2006-05",-75.182191,39.969701
4,"K","2007-12-28 02:47:00","2007-12-28","02:47:00",2,200704056652,"S DARIEN ST  / PACKER AV",2100,"DRIVING UNDER THE INFLUENCE",3,"2007-12",-75.163401,39.910098
24,"2","2012-08-05 07:48:00","2012-08-05","07:48:00",7,201224069562,"100 BLOCK E TUSCULUM ST",2600,"All Other Offenses",17,"2012-08",-75.129143,39.994441
35,"2","2013-03-11 09:41:00","2013-03-11","09:41:00",9,201335017071,"100 BLOCK W DUNCANNON AVE",1800,"Narcotic / Drug Law Violations",20,"2013-03",-75.122761,40.029122
92,"B","2007-01-06 04:21:00","2007-01-06","16:21:00",16,200792000195,"LEMON HILL DR /SEDGLEY DR",600,"Theft from Vehicle",8,"2007-01",-75.185828,39.971763
24,"1","2013-05-29 06:07:00","2013-05-29","18:07:00",18,201324047170,"3800 BLOCK GLENDALE ST",800,"Other Assaults",17,"2013-05",-75.10184,40.005885
24,"2","2011-05-08 02:44:00","2011-05-08","14:44:00",14,201124035553,"3000 BLOCK E ST",800,"Other Assaults",17,"2011-05",-75.119775,39.995441
3,"C","2006-12-17 02:54:00","2006-12-17","02:54:00",2,200603045548,"500 BLOCK S FRONT ST",2600,"All Other Offenses",3,"2006-12",-75.143907,39.941939
